régionCNC;N° auto;nom;région administrative;adresse;code INSEE;commune;population de la commune;DEP;N°UU;unité urbaine;population unité urbaine;situation géographique;écrans;fauteuils;semaines d'activité;séances;entrées 2022;entrées 2021;évolution entrées;tranche d'entrées;programmateur;AE;catégorie Art et Essai;label Art et Essai;genre;multiplexe;zone de la commune;nombre de films programmés;nombre de films inédits;nombre de films en semaine 1;PdM en entrées des films français;PdM en entrées des films américains;PdM en entrées des films européens;PdM en entrées des autres films;films Art et Essai;PdM en entrées des films Art et Essai;latitude;longitude;geolocalisation
2;119305;PATHE;ILE-DE-FRANCE;RUE DE L'HAUTIL;78172;Conflans-Sainte-Honorine;36372;78;851;Paris;10949158;03-Grande couronne;13;3105;53;21079;756769;472752;60.077376721833;De 700 000 à 1 million d'entrées;PATHE-GAUMONT;NON;NON;;FIXE;OUI;B;313;246;193;24.920052477008;58.0214569695194;13.7974573957286;3.26103315774402;106;4.14155473125512;49.004829;2.077668;49.004829, 2.077668
2;439271;LES VARIETES;ILE-DE-FRANCE;72 RUE DE CHELLES;77479;Vaires-sur-Marne;13450;77;851;Paris;10949158;03-Grande couronne;1;311;47;380;9572;4203;127.742088984059;De 5 à 10 000 entrées;;NON;NON;;FIXE;NON;B;109;92;1;77.9257954420346;14.7858637014202;5.95618187823406;1.33215897831113;36;24.760541671254;48.874168;2.632366;48.874168, 2.632366
3;49632;CINEMARINE;BRETAGNE;AVENUE DE LA PLAGE;29006;Bénodet;3775;29;29402;Fouesnant;26245;05-Unités urbaines de 20 000 à 100 000 hbts;2;326;53;2433;33415;21173;57.8189203230529;De 30 à 40 000 entrées;;OUI;D;;FIXE;NON;B;219;195;128;73.3268671193017;18.7651551891368;5.48314742967992;2.42483026188167;112;32.5200048496605;47.874121;-4.110036;47.874121, -4.110036
3;138345;D S N  DIEPPE SCENE NATIONALE;NORMANDIE;QUAI BERIGNY;76217;Dieppe;28535;76;76404;Dieppe;35913;05-Unités urbaines de 20 000 à 100 000 hbts;1;578;53;976;25652;14028;82.8628457370972;De 20 à 30 000 entrées;;OUI;D;RDJPPR;FIXE;NON;C;219;114;13;69.18558633618;10.1353884607373;12.501562174547;8.17746302853572;180;84.38658612789;49.923374;1.081518;49.923374, 1.081518
3;139232;LE DRAKKAR;NORMANDIE;6 RUE DU GENERAL DE GAULLE;14225;Dives-sur-Mer;5403;14;14402;Dives-sur-Mer;33981;05-Unités urbaines de 20 000 à 100 000 hbts;1;290;52;967;21996;12794;71.9243395341566;De 20 à 30 000 entrées;;OUI;D;JP;FIXE;NON;C;183;135;9;65.3288297238228;19.0741108682694;8.42936618319094;7.16769322471687;108;42.1716669978144;49.286704;-0.099295;49.286704, -0.099295
3;154444;CINEMA YVES ROBERT;PAYS DE LA LOIRE;34 RUE DE LA FONTAINE;53097;Évron;8896;53;53203;Évron;8896;06-autres communes et unités urbaines;3;447;53;2931;32961;23525;40.1105207226355;De 30 à 40 000 entrées;;OUI;E;JPPR;FIXE;NON;I;324;236;25;51.5885366011801;33.4305906762627;11.4698826428062;3.51099007975102;176;21.7532257018738;48.155173;-0.401505;48.155173, -0.401505
3;248763;ESPACE CULTUREL BEAUMARCHAIS;NORMANDIE;13 RUE DE LA REPUBLIQUE;76410;Maromme;10971;76;755;Rouen;481277;04-Unités urbaines de 100 000 hbts ou plus;1;245;36;81;4576;1686;171.41162514828;De 2 à 5 000 entrées;;NON;NON;;FIXE;NON;B;46;26;1;63.3363268971711;26.448136506511;8.91333632689717;1.30220026942075;16;35.4737314773238;49.479355;1.042864;49.479355, 1.042864
3;276351;LE REGENT;CENTRE-VAL DE LOIRE;3 BD PHILIPPE AUGUSTE;41151;Montrichard Val de Cher;3716;41;41204;Montrichard;6739;06-autres communes et unités urbaines;1;195;53;858;24259;12300;97.2276422764228;De 20 à 30 000 entrées;;OUI;E;JPPR;FIXE;NON;C;273;206;18;56.7147760274575;26.0274575376221;12.4306961189827;4.82707031593769;152;30.7357212003872;47.343448;1.182804;47.343448, 1.182804
3;322952;CINEMA PAX;PAYS DE LA LOIRE;5 RUE DU MARECHAL JOFFRE;44135;Le Pouliguen;4116;44;44601;Saint-Nazaire;160970;04-Unités urbaines de 100 000 hbts ou plus;1;230;53;1478;36717;21522;70.6021745190967;De 30 à 40 000 entrées;;OUI;C;RDJP;FIXE;NON;B;263;182;124;67.8921777701953;11.4276777844124;12.3176661264182;8.3624783189741;206;75.4926213426597;47.276193;-2.429727;47.276193, -2.429727
3;357751;REX;NORMANDIE;5 PLACE DE LA 2EME DB;61464;Sées;4634;61;61107;Sées;4634;06-autres communes et unités urbaines;1;212;52;809;16462;10431;57.8180423736938;De 10 à 20 000 entrées;;OUI;E;JP;FIXE;NON;I;202;151;5;57.6684084168903;19.7924022030787;15.9228922468578;6.61629713317328;93;36.8803841265358;48.607433;0.170941;48.607433, 0.170941
3;399341;FAMILIAL;BRETAGNE;BD DE LA PLAGE;35287;Saint-Lunaire;2589;35;458;Dinard;35626;05-Unités urbaines de 20 000 à 100 000 hbts;1;203;52;233;7013;4755;47.4868559411146;De 5 à 10 000 entrées;;OUI;D;;FIXE;NON;B;187;154;0;58.8812260536398;20.5670498084291;12.7816091954023;7.77011494252874;102;47.4022988505747;48.634794;-2.105848;48.634794, -2.105848
3;416921;FOYER RURAL;CENTRE-VAL DE LOIRE;25 PLACE DU CYGNE;18235;Sainte-Solange;1141;18;0;Zone rurale;14908533;04-Unités urbaines de 100 000 hbts ou plus;1;200;39;240;7405;2723;171.942710246052;De 5 à 10 000 entrées;;OUI;E;;ITINERANT;NON;R;47;30;0;79.1521197007481;4.27265170407315;12.8512053200333;3.72402327514547;20;45.2701579384871;47.135691;2.548784;47.135691, 2.548784
3;429621;CINETOILES;BOURGOGNE-FRANCHE-COMTE;21 RUE ARRAULT;89419;Toucy;2732;89;89101;Toucy;2732;06-autres communes et unités urbaines;1;74;51;417;7928;2805;182.638146167558;De 5 à 10 000 entrées;;NON;NON;;FIXE;NON;I;137;103;1;61.2341344855523;22.697812584391;9.53281123413449;6.53524169592223;63;47.5695382122603;47.734838;3.292272;47.734838, 3.292272
4;13622;ESPACE CULTUREL VILLENEUVE;PAYS DE LA LOIRE;ROUTE DE CHALLANS;85003;Aizenay;10270;85;85206;Aizenay;10270;06-autres communes et unités urbaines;2;240;53;1350;20912;11184;86.9814020028612;De 20 à 30 000 entrées;;OUI;E;JP;FIXE;NON;I;298;253;4;55.2976944514821;29.8809222194071;11.8773752216874;2.94400810742336;146;31.583481124905;46.744249;-1.61640299999999;46.744249, -1.6164029999999912
4;234295;CINEMA BERNADETTE;OCCITANIE;6 AV MGR SCHOEPFER;65286;Lourdes;13546;65;65302;Lourdes;16846;06-autres communes et unités urbaines;1;281;30;369;4566;1637;178.924862553451;De 2 à 5 000 entrées;;NON;NON;;FIXE;NON;C;4;0;0;91.8090232150679;1.92728865527814;6.26368812965396;0;1;6.26368812965396;43.095917;-0.055559;43.095917, -0.055559
4;254005;CINEMA APOLLO;OCCITANIE;PLACE DU MARECHAL LECLERC;81163;Mazamet;10361;81;81401;Mazamet;25228;05-Unités urbaines de 20 000 à 100 000 hbts;4;585;49;1386;25151;19506;28.9398133907516;De 20 à 30 000 entrées;;OUI;D;;FIXE;NON;C;188;150;25;43.7380720132321;39.8956698757369;14.3093430595021;2.0569150515289;96;18.1093345773782;43.493101;2.374957;43.493101, 2.374957
4;302933;REX;OCCITANIE;19 RUE TAILLANCIER;9225;Pamiers;16421;9;9401;Pamiers;27866;05-Unités urbaines de 20 000 à 100 000 hbts;2;275;53;2060;28465;12131;134.64677273102;De 20 à 30 000 entrées;;NON;NON;;FIXE;NON;C;174;149;66;35.4342289342469;48.7068192416688;10.227068909854;5.63188291423037;77;18.9044732216523;43.116608;1.612993;43.116608, 1.612993
4;312973;L EUROPE;OCCITANIE;14 RUE SAINT NICOLAS;32319;Plaisance;1446;32;0;Zone rurale;14908533;04-Unités urbaines de 100 000 hbts ou plus;1;181;53;432;9816;6159;59.3765221626887;De 5 à 10 000 entrées;;OUI;E;;FIXE;NON;R;283;234;39;53.4891064098516;24.0922008209662;15.4089043258604;7.00978844332176;159;38.1959793705926;43.604768;0.0448;43.604768, 0.0448
4;348442;L ESTRADE;NOUVELLE AQUITAINE;SALLE MUNICIPALE;40246;Sabres;1312;40;0;Zone rurale;14908533;04-Unités urbaines de 100 000 hbts ou plus;1;103;51;465;3957;2135;85.3395784543326;De 2 à 5 000 entrées;;OUI;E;JP;FIXE;NON;R;193;161;0;62.5956738768719;19.5341098169717;13.7770382695507;4.09317803660566;80;37.8702163061564;44.152438;-0.737033;44.152438, -0.737033
4;395463;LE SELECT;NOUVELLE AQUITAINE;CONTIS PLAGE;40266;Saint-Julien-en-Born;1722;40;0;Zone rurale;14908533;04-Unités urbaines de 100 000 hbts ou plus;1;290;38;701;8614;9722;-11.3968319275869;De 5 à 10 000 entrées;;OUI;E;RDJP;FIXE;NON;R;195;150;4;47.5240470252939;22.8713929462059;15.2000950005938;14.4044650279064;135;54.6253414083838;44.079661;-1.257781;44.079661, -1.257781
4;718200;CINEVILLE;PAYS DE LA LOIRE;RUE FRANCOIS CEVERT;85191;La Roche-sur-Yon;58168;85;85501;La Roche-sur-Yon;58168;05-Unités urbaines de 20 000 à 100 000 hbts;9;2014;51;12455;342830;217755;57.438405547519;De 300 à 450 000 entrées;CINEVILLE;NON;NON;;FIXE;OUI;I;247;158;138;36.6845656957204;49.9703973820093;10.6401529321319;2.70488399013835;72;2.51636980591876;46.697805;-1.426619;46.697805, -1.426619
4;724840;SALLE DE PROJECTION SPECTACLE DU GRENIER DE MONSIEUR;OCCITANIE;RUE DU GRENIER;12307;Curan;308;12;0;Zone rurale;14908533;04-Unités urbaines de 100 000 hbts ou plus;1;98;53;234;3063;1503;103.792415169661;De 2 à 5 000 entrées;;NON;NON;;FIXE;NON;R;81;71;0;78.7756474941137;13.2862428523377;3.19542549613185;4.74268415741675;21;21.8298015472587;44.182478;2.786721;44.182478, 2.786721
5;89644;MILLENIUM;HAUTS DE FRANCE;PLACE DES MANTILLES;59139;Caudry;14170;59;59307;Caudry;18128;06-autres communes et unités urbaines;2;598;53;1259;32623;20779;56.999855623466;De 30 à 40 000 entrées;;OUI;E;JP;FIXE;NON;C;196;159;23;37.2949913098436;39.6650339706115;18.3220097961763;4.71796492336862;76;13.6798862379523;50.127719;3.415275;50.127719, 3.415275
5;137112;MEGARAMA;HAUTS DE FRANCE;RUE DE VILLARS;59172;DENAIN;20532;59;59701;Valenciennes (partie française);336069;04-Unités urbaines de 100 000 hbts ou plus;7;986;53;11989;121737;68309;78.2151693041913;De 100 à 150 000 entrées;MEGARAMA;NON;NON;;FIXE;NON;B;208;156;139;30.1871118970268;54.7542871242341;10.3976641855492;4.66093679318995;40;3.5177036641033;50.326793;3.393394;50.326793, 3.393394
6;75492;PARIS;AUVERGNE-RHONE-ALPES;PLACE DE LA LIBERTE;43040;Brioude;6851;43;43202;Brioude;7515;06-autres communes et unités urbaines;1;313;44;219;3275;2572;27.3328149300156;De 2 à 5 000 entrées;;OUI;E;JP;FIXE;NON;C;92;79;0;72.3456790123457;17.9012345679012;7.34567901234568;2.40740740740741;24;18.5185185185185;45.292071;3.387558;45.292071, 3.387558
6;96184;VOX;AUVERGNE-RHONE-ALPES;22 COURS DU BARTAVEL;74056;Chamonix-Mont-Blanc;9019;74;74301;Chamonix-Mont-Blanc;12270;06-autres communes et unités urbaines;3;508;41;2461;36623;30162;21.4209933028314;De 30 à 40 000 entrées;;OUI;E;;FIXE;NON;C;198;163;62;41.1016360656648;42.3238243382128;12.8635315685675;3.71100802755479;107;19.5855670675815;45.923063;6.86902;45.923063, 6.86902
6;237945;LE CINEMA;AUVERGNE-RHONE-ALPES;18 RUE SAINT POLYCARPE;69123;Lyon;528633;69;758;Lyon;1720030;04-Unités urbaines de 100 000 hbts ou plus;1;46;47;943;2423;1250;93.84;De 2 à 5 000 entrées;;NON;NON;;FIXE;NON;C;134;111;7;61.3664596273292;4.22360248447205;17.7639751552795;16.6459627329193;126;97.4741200828157;45.768607;4.834444;45.768607, 4.834444
6;289344;REX;AUVERGNE-RHONE-ALPES;4 AV DU 11 NOVEMBRE;69143;Neuville-sur-Saône;7700;69;758;Lyon;1720030;04-Unités urbaines de 100 000 hbts ou plus;2;269;50;1752;33409;21212;57.5004714312653;De 30 à 40 000 entrées;;OUI;C;JP;FIXE;NON;B;153;111;36;64.2118662485641;26.6571455183334;6.7186190195287;2.41236921357385;68;28.8056133378869;45.87473;4.841744;45.87473, 4.841744
6;376842;CIN'ETOILE;AUVERGNE-RHONE-ALPES;1 ROUTE D' AUGEL;42204;Saint-Bonnet-le-Château;1532;42;0;Zone rurale;14908533;04-Unités urbaines de 100 000 hbts ou plus;1;145;53;1157;12839;7817;64.2445951132148;De 10 à 20 000 entrées;;OUI;E;JPPR;FIXE;NON;R;293;222;8;62.8799030219067;21.2052991601004;8.73668715906139;7.17811065893151;179;42.4192570785349;45.421496;4.064272;45.421496, 4.064272
6;710250;LE QUAI DES ARTS;AUVERGNE-RHONE-ALPES;LA GARE;42318;Usson-en-Forez;1512;42;0;Zone rurale;14908533;04-Unités urbaines de 100 000 hbts ou plus;1;145;53;960;10262;6026;70.2953866578161;De 10 à 20 000 entrées;;OUI;E;JP;FIXE;NON;R;296;244;0;69.9852039737899;18.0300147960262;8.10610864510674;3.87867258507715;181;34.6227013316424;45.390497;3.946964;45.390497, 3.946964
7;74339;COSMO CINEMAS;PROVENCE-ALPES-COTE D'AZUR;AVENUE DU GENERAL BARBOT;5023;Briançon;11095;5;5301;Briançon;16122;06-autres communes et unités urbaines;4;476;53;5533;65314;37728;73.1181085665819;De 50 à 80 000 entrées;;NON;NON;;FIXE;NON;C;132;111;100;36.6791004349239;50.5037997802164;10.7508241885805;2.06627559627916;16;3.88490767540126;44.900658;6.632743;44.900658, 6.632743
7;82752;SALLE POLYVALENTE;PROVENCE-ALPES-COTE D'AZUR;SALLE POLYVALENTE;84029;Camaret-sur-Aigues;4636;84;84111;Camaret-sur-Aigues;5361;06-autres communes et unités urbaines;1;120;51;351;9711;3934;146.847991865785;De 5 à 10 000 entrées;;OUI;E;JP;ITINERANT;NON;C;137;101;0;62.814465408805;15.3414195867026;10.377358490566;11.4667565139263;77;49.1576819407008;44.162816;4.889682;44.162816, 4.889682
7;404350;SALLE JEAN GABIN;PROVENCE-ALPES-COTE D'AZUR;PLACE FELIX FAURE;6127;Saint-Martin-Vésubie;1443;6;0;Zone rurale;14908533;04-Unités urbaines de 100 000 hbts ou plus;1;120;49;293;5377;3284;63.7332521315469;De 5 à 10 000 entrées;PATHE-GAUMONT;NON;NON;;ITINERANT;NON;R;78;67;3;74.9097815764482;19.9810066476733;4.3684710351377;0.740740740740741;21;15.9354226020893;44.073396;7.263839;44.073396, 7.263839
2;28264;STUDIO;ILE-DE-FRANCE;2 RUE EDOUARD POISSON;93001;Aubervilliers;89559;93;851;Paris;10949158;02-Petite Couronne;1;127;49;1246;27642;13653;102.460997582949;De 20 à 30 000 entrées;;OUI;C;JPPR;FIXE;NON;B;295;190;6;62.4889751278885;20.043217498677;8.86399717763274;8.60381019580173;212;73.9813018168989;48.910534;2.384966;48.910534, 2.384966
2;37350;CINE TOILE;ILE-DE-FRANCE;2 RUE DES COLOMBES;91045;Ballancourt-sur-Essonne;7812;91;91402;Ballancourt-sur-Essonne;35751;03-Grande couronne;1;189;44;475;5652;5624;0.497866287339965;De 5 à 10 000 entrées;;NON;NON;;FIXE;NON;C;103;91;24;55.8630735615441;39.530225782957;4.38820101966497;0.21849963583394;27;20.9759650400583;48.528643;2.388787;48.528643, 2.388787
2;61504;SALLE ANDRE MALRAUX;ILE-DE-FRANCE;25 COURS DE LA REPUBLIQUE;93010;Bondy;53509;93;851;Paris;10949158;02-Petite Couronne;1;324;49;1337;28191;18071;56.0013280947374;De 20 à 30 000 entrées;;OUI;C;JP;FIXE;NON;B;253;169;7;50.8135620391151;34.1335363898685;8.38810516191087;6.66479640910548;145;45.4833279897403;48.901598;2.480089;48.901598, 2.480089
2;111583;FRANCOIS TRUFFAUT;ILE-DE-FRANCE;2 RUE DE L ECOLE;91161;Chilly-Mazarin;20050;91;851;Paris;10949158;03-Grande couronne;2;409;53;2951;41110;24560;67.385993485342;De 40 à 50 000 entrées;;OUI;C;RDJPPR;FIXE;NON;B;453;272;39;57.2699778992672;20.2367104804001;15.1419099685937;7.35140165173898;331;58.7966732581133;48.703333;2.314917;48.703333, 2.314917
2;173332;JACQUES BREL A;ILE-DE-FRANCE;PLACE DE L'HOTEL DE VILLE;95268;Garges-lès-Gonesse;43294;95;851;Paris;10949158;03-Grande couronne;1;225;44;742;12659;5324;137.772351615327;De 10 à 20 000 entrées;;OUI;C;JP;FIXE;NON;B;153;107;2;42.8644136807818;26.0077361563518;12.5305374592834;18.5973127035831;72;60.5557817589577;48.971945;2.399817;48.971945, 2.399817
2;179852;CINE THEATRE JACQUES PREVERT;ILE-DE-FRANCE;PLACE AIME-CESAIRE;95277;Gonesse;25950;95;851;Paris;10949158;03-Grande couronne;1;223;50;1350;24033;13633;76.285483752659;De 20 à 30 000 entrées;;OUI;C;JPPR;FIXE;NON;B;318;219;5;55.2128745014377;20.3830813468138;9.28949077080048;15.114553380948;208;61.557369446248;48.999982;2.428131;48.999982, 2.428131
2;303445;CINEMA L'AVANT-SCENE;ILE-DE-FRANCE;1, RUE ALSACE-LORRAINE;91479;Paray-Vieille-Poste;7885;91;851;Paris;10949158;03-Grande couronne;1;314;41;164;4923;2567;91.7802882742501;De 2 à 5 000 entrées;;NON;NON;;FIXE;NON;B;107;85;2;48.5872977541657;30.2825404491669;17.6768896401835;3.45327215648394;49;37.8893986959672;48.712693;2.363281;48.712693, 2.363281
2;406812;CINES CARNE;ILE-DE-FRANCE;PLACE MARCEL CARNE;91570;Saint-Michel-sur-Orge;21441;91;851;Paris;10949158;03-Grande couronne;3;496;50;2841;48190;32429;48.6015603318018;De 40 à 50 000 entrées;;OUI;C;RDJPPR;FIXE;NON;B;302;206;41;65.5617813182115;19.6134026418236;10.5785458718693;4.24627016809559;222;69.8935619613403;48.637713;2.320768;48.637713, 2.320768
2;718750;KINEPOLIS BRETIGNY;ILE-DE-FRANCE;5 RUE MICHELE MORGAN;91103;Brétigny-sur-Orge;27361;91;851;Paris;10949158;03-Grande couronne;10;1508;53;28461;781856;463313;68.7533050011547;De 700 000 à 1 million d'entrées;KINEPOLIS;NON;NON;;FIXE;OUI;B;252;180;172;26.4964621480747;55.800543439694;12.8049408603012;4.89805355193008;28;2.07692853562002;48.5792468;2.29963569999995;48.57924680000001, 2.2996356999999534
2;724000;CINE PINCE VENT;ILE-DE-FRANCE;CENTRE COMMERCIAL PINCE VENT 85 ROUTE DE PROVINS;94019;Chennevières-sur-Marne;18115;94;851;Paris;10949158;02-Petite Couronne;8;1606;53;13410;207537;123206;68.4471535477168;De 200 à 300 000 entrées;;NON;NON;;FIXE;OUI;B;174;156;149;34.523114061557;49.7902232951116;11.905853952927;3.78080869040434;32;5.1814121907061;48.7946166;2.55257189999998;48.7946166, 2.5525718999999754
3;29373;CINE GOYEN;BRETAGNE;13 RUE LOUIS PASTEUR;29003;Audierne;3756;29;29213;Plouhinec - Audierne;7775;06-autres communes et unités urbaines;1;516;38;725;12702;12513;1.51042915368018;De 10 à 20 000 entrées;;OUI;E;JPPR;FIXE;NON;B;155;125;2;62.0216784365249;23.5999343077681;9.23797011003449;5.14041714567252;92;45.5821974051568;48.022078;-4.5389;48.022078, -4.5389
3;50901;SALLE JEANNE D ARC;PAYS DE LA LOIRE;15 RUE DE LA MER;44012;La Bernerie-en-Retz;3246;44;44304;Pornic;22413;05-Unités urbaines de 20 000 à 100 000 hbts;1;218;53;246;7852;5387;45.7583070354557;De 5 à 10 000 entrées;;NON;NON;;FIXE;NON;B;149;133;4;71.5421718159301;15.6302959196976;6.00964672141833;6.81788554295398;51;24.9120062573328;47.079739;-2.03865;47.079739, -2.03865
3;81451;CINEMA LUX;NORMANDIE;AV SAINTE THERESE;14118;Caen;109401;14;14601;Caen;206642;04-Unités urbaines de 100 000 hbts ou plus;3;477;53;6526;133029;82232;61.772789181827;De 100 à 150 000 entrées;;OUI;B;RDJPPR;FIXE;NON;C;374;217;162;65.625539257981;13.171453223222;12.9101442129915;8.2928633058055;290;81.1956119807716;49.168683;-0.337953;49.168683, -0.337953
3;86832;THEATRE DE DION;PAYS DE LA LOIRE;ROUTE DE SUCE;44026;Carquefou;20963;44;44701;Nantes;688577;04-Unités urbaines de 100 000 hbts ou plus;1;768;19;56;3416;1015;236.551724137931;De 2 à 5 000 entrées;;NON;NON;;FIXE;NON;B;54;43;0;65.251756440281;29.8887587822014;2.48829039812646;2.3711943793911;21;40.3395784543326;47.279819;-1.508095;47.279819, -1.508095
3;114523;SALLE LEBRUN;HAUTS DE FRANCE;7, PLACE CORROYER;60157;Clermont;10481;60;60401;Clermont;22225;05-Unités urbaines de 20 000 à 100 000 hbts;1;110;44;606;16726;11897;40.5900647221989;De 10 à 20 000 entrées;;OUI;D;;FIXE;NON;C;183;141;2;52.9404458796498;29.2367881761163;14.7612246165311;3.06154132770291;85;36.0305533130473;49.377974;2.414916;49.377974, 2.414916
3;133381;LE CLUB 2;CENTRE-VAL DE LOIRE;SALLE POLYVALENTE;45122;Dampierre-en-Burly;1461;45;0;Zone rurale;14908533;04-Unités urbaines de 100 000 hbts ou plus;1;189;46;362;5901;4564;29.2944785276074;De 5 à 10 000 entrées;;NON;NON;;FIXE;NON;R;130;112;27;53.948753948754;34.4682344682345;7.87995787995788;3.7030537030537;32;18.1642681642682;47.766235;2.572005;47.766235, 2.572005
3;154393;PATHE EVREUX;NORMANDIE;3 RUE DU 7 EME CHASSEURS;27229;Évreux;48096;27;27501;Évreux;59631;05-Unités urbaines de 20 000 à 100 000 hbts;10;2395;53;16841;342460;212683;61.0189813008092;De 300 à 450 000 entrées;PATHE-GAUMONT;OUI;D;PR;FIXE;OUI;C;402;291;234;38.5819706003896;46.0806423047405;11.4531554401086;3.8842316547612;208;13.518802762855;49.028048;1.145355;49.028048, 1.145355
3;156393;CINE SEINE;NORMANDIE;PLACE GASTON SANSON;76258;Terres-de-Caux;4317;76;76102;Fauville-en-Caux;4317;06-autres communes et unités urbaines;1;298;50;387;12705;6719;89.0906384878702;De 10 à 20 000 entrées;;OUI;E;;ITINERANT;NON;I;121;87;0;64.3467156197622;25.5247825045894;7.86974219810041;2.25875967754809;26;11.4933354617288;49.65116;0.591603;49.65116, 0.591603
3;160742;LE KID;PAYS DE LA LOIRE;22 RUE ST JACQUES;72154;La Flèche;16165;72;72303;La Flèche;16165;06-autres communes et unités urbaines;3;426;51;3108;67124;42536;57.8051532819259;De 50 à 80 000 entrées;;OUI;E;JP;FIXE;NON;I;287;222;82;50.7955750871344;35.8433095923625;10.1000151538112;3.26110016669192;120;14.9522654947719;47.699791;-0.080579;47.699791, -0.080579
3;193185;LE STUDIO;NORMANDIE;3 RUE DU GENERAL SARRAIL;76351;Le Havre;167658;76;76701;Le Havre;233828;04-Unités urbaines de 100 000 hbts ou plus;1;86;48;1330;19469;9244;110.612289052358;De 10 à 20 000 entrées;;OUI;A;JPPR;FIXE;NON;C;142;7;1;40.0040606388739;21.0341093665403;17.4336762317271;21.5281537628587;117;88.8873849485652;49.492799;0.120219;49.492799, 0.120219
3;244455;CINE POCHE;PAYS DE LA LOIRE;97 GRANDE RUE;72181;Le Mans;147983;72;72701;Le Mans;217388;04-Unités urbaines de 100 000 hbts ou plus;1;99;8;12;205;90;127.777777777778;Moins de 2000 entrées;;NON;NON;;FIXE;NON;C;12;0;0;53.6585365853659;35.609756097561;10.7317073170732;0;12;100;48.007214;0.195479;48.007214, 0.195479
3;258652;GERARD PHILIPE;HAUTS DE FRANCE;RUE PAUL DOUMER;80533;Mers-les-Bains;2632;80;453;Eu;19251;06-autres communes et unités urbaines;1;161;53;1449;37013;24372;51.866896438536;De 30 à 40 000 entrées;;NON;NON;;FIXE;NON;B;177;151;79;56.3262980847485;30.8284954695893;10.14866257935;2.69654386631219;74;14.7604579241495;50.066803;1.384364;50.066803, 1.384364
3;312221;LE COTENTIN;NORMANDIE;PLACE DU MARCHE;50403;Pirou;1466;50;0;Zone rurale;14908533;04-Unités urbaines de 100 000 hbts ou plus;1;154;52;717;11154;7315;52.4812030075188;De 10 à 20 000 entrées;;OUI;E;JP;FIXE;NON;R;173;149;13;57.1825249907442;29.8037763791188;10.3572750833025;2.65642354683451;60;21.3346908552388;49.166275;-1.5704;49.166275, -1.5704
3;313842;CINEMA L'HERMINE;BRETAGNE;33 RUE DE L HERMINE;35223;Plélan-le-Grand;4116;35;35116;Plélan-le-Grand;4116;06-autres communes et unités urbaines;1;192;53;526;14536;6986;108.073289436015;De 10 à 20 000 entrées;;OUI;E;JP;FIXE;NON;I;369;293;0;52.9307413703895;31.3622588513563;10.9690294922019;4.73797028605218;220;34.7401877448444;47.998597;-2.096562;47.998597, -2.096562
3;330052;LA BOBINE;BRETAGNE;RUE BREMOND D ARS;29233;Quimperlé;12553;29;29304;Quimperlé;14930;06-autres communes et unités urbaines;1;248;53;755;29735;17151;73.3718150545158;De 20 à 30 000 entrées;;OUI;E;JPPR;FIXE;NON;C;322;246;11;58.1686818047774;25.7741079327632;12.2345915659098;3.82261869654969;192;40.6627838395754;47.874513;-3.545043;47.874513, -3.545043
3;396151;JEANNE MOREAU;HAUTS DE FRANCE;67 RUE DE BEAUVAIS;60581;Saint-Just-en-Chaussée;6105;60;60201;Saint-Just-en-Chaussée;6105;06-autres communes et unités urbaines;1;200;53;941;23838;15422;54.5713915186098;De 20 à 30 000 entrées;;NON;NON;;FIXE;NON;I;206;171;15;34.6181015452539;49.8057395143488;12.1015452538631;3.47461368653422;70;12.7152317880795;49.505347;2.430243;49.505347, 2.430243
4;50151;CYRANO;NOUVELLE AQUITAINE;2 PLACE DES CARMES;24037;Bergerac;27101;24;553;Bergerac;65896;05-Unités urbaines de 20 000 à 100 000 hbts;9;1082;53;10711;120428;70793;70.112864266241;De 100 à 150 000 entrées;GRAND ECRAN;OUI;D;;FIXE;OUI;C;358;251;196;39.2718855218855;46.5218855218855;10.2988215488215;3.90740740740741;177;14.5589225589226;44.853174;0.486443;44.853174, 0.486443
4;57821;COLONNES;NOUVELLE AQUITAINE;RUE DU DOCTEUR CASTERA;33056;Blanquefort;15862;33;33701;Bordeaux;975671;04-Unités urbaines de 100 000 hbts ou plus;2;339;53;2732;28858;17583;64.1244383779787;De 20 à 30 000 entrées;;OUI;C;JP;FIXE;NON;B;296;214;24;73.0763473053892;14.2140718562874;8.73877245508982;3.97080838323353;189;52.6609281437126;44.910625;-0.633757;44.910625, -0.633757
4;88512;VOX;OCCITANIE;11 RUE DU COLLEGE;82033;Castelsarrasin;14404;82;82401;Castelsarrasin;28478;05-Unités urbaines de 20 000 à 100 000 hbts;1;184;49;323;7651;4465;71.3549832026876;De 5 à 10 000 entrées;;OUI;D;;FIXE;NON;C;177;149;0;72.817775212812;6.73784446688789;10.4746789785024;9.96970134179772;92;53.4122060308758;44.037315;1.109842;44.037315, 1.109842
4;92441;7EME ART;NOUVELLE AQUITAINE;PLACE DE LA MAIRIE;79062;Cerizay;4874;79;79204;Cerizay;5844;06-autres communes et unités urbaines;1;177;47;653;7492;3849;94.6479605092232;De 5 à 10 000 entrées;;OUI;E;;FIXE;NON;C;160;139;7;70.6080606656369;15.3349248701025;12.8212329728971;1.23578149136357;43;14.0008425782896;46.821515;-0.668137;46.821515, -0.668137
4;94745;CINE TRISKELL;PAYS DE LA LOIRE;PLACE DU FOIRAIL;85047;Challans;22690;85;85402;Challans;30386;05-Unités urbaines de 20 000 à 100 000 hbts;5;780;53;6364;152964;93238;64.0575730925159;De 150 à 200 000 entrées;;OUI;D;JPPR;FIXE;NON;C;378;242;142;42.7572407516462;43.0898335028642;10.0641094276996;4.08881631779003;196;11.4232560629584;46.84884;-1.872212;46.84884, -1.872212
4;218381;LOUIS JOUVET;NOUVELLE AQUITAINE;1 AVENUE DE LA GARE;64320;Laruns;1205;64;0;Zone rurale;14908533;04-Unités urbaines de 100 000 hbts ou plus;1;155;53;327;3569;1928;85.1141078838174;De 2 à 5 000 entrées;;OUI;E;;FIXE;NON;R;192;168;30;55.5085939701324;32.6007326007326;8.87573964497041;3.01493378416455;93;27.585235277543;42.988146;-0.425403;42.988146, -0.425403
4;268122;CINEMA CAMERA 5 (LOUIS ET AUGUSTE LUMIERE);PAYS DE LA LOIRE;AV VILLEBOIS MAREUIL;85146;Montaigu;21206;85;85302;Montaigu;21206;05-Unités urbaines de 20 000 à 100 000 hbts;2;280;37;990;24191;20967;15.3765440930987;De 20 à 30 000 entrées;;OUI;E;JPPR;FIXE;NON;C;190;131;30;62.3870281765019;22.6829700513911;9.9016480595428;5.02835371256424;89;26.227184121921;46.98002;-1.316083;46.98002, -1.316083
4;392685;CINEVALS;NOUVELLE AQUITAINE;1 RUE LACOUE;17347;Saint-Jean-d'Angély;7172;17;17207;Saint-Jean-d'Angély;8431;06-autres communes et unités urbaines;3;463;53;4173;62255;13907;347.652261451068;De 50 à 80 000 entrées;;NON;NON;;FIXE;NON;C;393;291;76;51.4622883530015;34.6943842168854;9.967063341002;3.87626408911104;231;20.0764660123471;45.944226;-0.527289;45.944226, -0.527289
4;456362;CINE BOR;OCCITANIE;RUE BOR;31582;Villefranche-de-Lauragais;4916;31;31114;Villefranche-de-Lauragais;5472;06-autres communes et unités urbaines;1;162;53;777;13019;7964;63.4731290808639;De 10 à 20 000 entrées;;OUI;E;JP;FIXE;NON;C;405;323;2;58.4767822655135;18.6833487278529;14.8962969182971;7.94357208833655;257;54.9248467545554;43.398281;1.715623;43.398281, 1.715623
5;137663;CINE DESVRES;HAUTS DE FRANCE;8, RUE VICTOR LENGAGNE;62268;Desvres;4898;62;62203;Desvres;6419;06-autres communes et unités urbaines;1;111;48;370;5784;4166;38.8382141142583;De 5 à 10 000 entrées;;NON;NON;;FIXE;NON;C;124;104;2;49.2798541476755;34.4211485870556;14.457611668186;1.84138559708295;31;10.5925250683683;50.668276;1.837675;50.668276, 1.837675
5;204312;REGENT;HAUTS DE FRANCE;RUE HECTOR DESPRET;59324;Jeumont;10544;59;59601;Maubeuge (partie française);111761;04-Unités urbaines de 100 000 hbts ou plus;1;580;51;708;12468;6071;105.369790808763;De 10 à 20 000 entrées;;NON;NON;;FIXE;NON;B;132;106;16;44.8252574708762;38.9920648320108;12.2235353705892;3.95914232652372;29;16.2502110417018;50.296328;4.097609;50.296328, 4.097609
6;48241;STUDIO;AUVERGNE-RHONE-ALPES;3 RUE DES POMMIERS;73150;La Plagne Tarentaise;3959;73;73201;Aime;8496;06-autres communes et unités urbaines;1;247;29;277;3224;1621;98.8895743368291;De 2 à 5 000 entrées;;NON;NON;;FIXE;NON;B;95;80;9;52.8562259306804;34.788189987163;8.7612323491656;3.59435173299101;20;10.397946084724;45.5723076;6.74178959999995;45.57230759999999, 6.741789599999947
6;59211;L ENTRACT;AUVERGNE-RHONE-ALPES;23 RUE ALSACE LORRAINE;42019;Boën-sur-Lignon;3092;42;42201;Boën;7283;06-autres communes et unités urbaines;1;183;45;483;8903;4509;97.449545353737;De 5 à 10 000 entrées;;OUI;E;;FIXE;NON;C;202;164;4;63.2179630318819;21.9203572757722;9.30405656866394;5.55762312368193;91;31.6337923334574;45.7445112;4.00601069999993;45.7445112, 4.006010699999933
6;102173;CRYSTAL PALACE;BOURGOGNE-FRANCHE-COMTE;14 RUE DE BOURGOGNE;58059;La Charité-sur-Loire;4726;58;254;La Charité-sur-Loire;5202;06-autres communes et unités urbaines;2;301;52;1663;12732;7933;60.4941384091769;De 10 à 20 000 entrées;;OUI;E;RDJPPR;FIXE;NON;C;262;196;11;60.7471311141857;19.7281679824204;11.7685358508993;7.75616505249451;153;45.4708228208676;47.176632;3.02193109999996;47.176632, 3.0219310999999607
6;115566;CINE CLUSES;AUVERGNE-RHONE-ALPES;CHEMIN DE L EPINETTE;74081;Cluses;17372;74;74502;Cluses;93895;05-Unités urbaines de 20 000 à 100 000 hbts;3;655;53;4017;63646;31444;102.41063477929;De 50 à 80 000 entrées;;OUI;D;JP;FIXE;NON;C;337;250;84;38.4650025733402;45.3760293360782;10.8321538857437;5.32681420483788;216;20.7137802367473;46.063557;6.58368;46.063557, 6.58368
6;118073;THEATRE ALPHONSE THIVRIER;AUVERGNE-RHONE-ALPES;THEATRE ALPHONSE THIVRIER;3082;Commentry;6285;3;3203;Commentry;7075;06-autres communes et unités urbaines;1;600;45;445;16310;4467;265.122005820461;De 10 à 20 000 entrées;;NON;NON;;ITINERANT;NON;C;66;43;0;79.4959747987399;6.44732236611831;2.33811690584529;11.7185859292965;27;30.8925446272314;46.287439;2.74393;46.287439, 2.74393
6;125424;SALLE EMILIEN MICHOUX;AUVERGNE-RHONE-ALPES;RUE PARMENTIER;69066;Cours;4457;69;69106;Cours-la-Ville;4457;06-autres communes et unités urbaines;1;189;46;148;2371;1393;70.208183776023;De 2 à 5 000 entrées;;NON;NON;;FIXE;NON;I;120;98;0;71.1236933797909;15.7665505226481;8.71080139372822;4.39895470383275;35;25.609756097561;46.100564;4.328791;46.100564, 4.328791
6;138804;PATHE;BOURGOGNE-FRANCHE-COMTE;12 PARVIS DE L'UNESCO;21231;DIJON;162454;21;21701;Dijon;253465;04-Unités urbaines de 100 000 hbts ou plus;9;1215;35;10867;89975;;;De 80 à 100 000 entrées;;NON;NON;;FIXE;OUI;C;174;155;107;33.8471789312012;54.4698920359579;6.66418213850115;5.01874689433979;72;11.1476261462709;47.316794;5.030016;47.316794, 5.030016
6;162501;SALLE DES FETES;BOURGOGNE-FRANCHE-COMTE;FONCINE LE HAUT;39228;Foncine-le-Haut;1128;39;0;Zone rurale;14908533;04-Unités urbaines de 100 000 hbts ou plus;1;150;6;9;174;;;Moins de 2000 entrées;;NON;NON;;FIXE;NON;R;6;6;0;40.8045977011494;45.9770114942529;13.2183908045977;0;1;7.47126436781609;46.656698;6.0275;46.656698, 6.0275
6;192631;NOVELTY;AUVERGNE-RHONE-ALPES;RUE DE LA REPUBLIQUE;1185;Hauteville-Lompnes;4981;1;1120;Hauteville-Lompnes;4981;06-autres communes et unités urbaines;1;177;50;639;8134;5584;45.6661891117479;De 5 à 10 000 entrées;;NON;NON;;FIXE;NON;I;178;160;5;61.7801702553831;28.3174762143215;8.47521281922884;1.4271407110666;64;25.8637956935403;45.977393;5.601461;45.977393, 5.601461
6;238032;ASTORIA;AUVERGNE-RHONE-ALPES;31-33 COURS VITTON;69123;Lyon;528633;69;758;Lyon;1720030;04-Unités urbaines de 100 000 hbts ou plus;5;898;53;7411;132339;82712;59.9997581971177;De 100 à 150 000 entrées;UGC;NON;NON;;FIXE;NON;C;151;103;91;72.6618759398212;7.43167169164041;13.3316709360053;6.57478143253312;96;58.1385683736465;45.769811;4.855776;45.769811, 4.855776
6;266962;LA CAPITELLE;AUVERGNE-RHONE-ALPES;BOULEVARD DE MAZEL;43137;Monistrol-sur-Loire;9393;43;43301;Monistrol-sur-Loire;13923;06-autres communes et unités urbaines;2;348;52;1796;45606;25862;76.3436702497873;De 40 à 50 000 entrées;;OUI;E;JP;FIXE;NON;C;271;230;27;46.7031290345297;39.2479049787564;9.78380789183353;4.2651580948804;135;15.9620666181545;45.284509;4.176668;45.284509, 4.176668
6;301633;ATMOSPHERE;AUVERGNE-RHONE-ALPES;PARC JEANTET;1283;Oyonnax;22724;1;1401;Oyonnax;33958;05-Unités urbaines de 20 000 à 100 000 hbts;3;479;52;2507;47223;29272;61.324815523367;De 40 à 50 000 entrées;;NON;NON;;FIXE;NON;C;177;143;106;32.7939198565359;50.2743323157063;12.1901752737986;4.74157255395914;38;6.39610597553425;46.258908;5.655149;46.258908, 5.655149
6;321594;LE TRAIN CINEMA;AUVERGNE-RHONE-ALPES;1, RUE LOUIS ARAGON;26252;Portes-lès-Valence;10685;26;651;Valence;135081;04-Unités urbaines de 100 000 hbts ou plus;2;552;45;530;8986;3978;125.892408245349;De 5 à 10 000 entrées;;OUI;C;;FIXE;NON;B;120;85;5;77.0471915564722;16.8263981560112;4.51292005337862;1.61349023413806;73;53.9124105301468;44.874731;4.88233;44.874731, 4.88233
7;33772;UTOPIA REPUBLIQUE (UTOPIA 5);PROVENCE-ALPES-COTE D'AZUR;5 RUE FIGUIERE;84007;Avignon;92277;84;754;Avignon;470065;04-Unités urbaines de 100 000 hbts ou plus;1;139;49;1346;19902;12092;64.5881574594773;De 10 à 20 000 entrées;;OUI;B;RDJPPR;FIXE;NON;C;328;223;127;65.7378153001502;9.80991350287461;13.9275910291604;10.5246801678148;293;90.2522401201637;43.947217;4.806805;43.947217, 4.806805
7;52619;LE MARILYN;PROVENCE-ALPES-COTE D'AZUR;PLACE NOEL BLACHE;83018;Besse-sur-Issole;3122;83;83206;Carnoules;11450;06-autres communes et unités urbaines;1;84;51;402;8053;5868;37.2358554873892;De 5 à 10 000 entrées;;NON;NON;;FIXE;NON;C;91;81;0;53.4831739724326;34.6454737364957;8.17086799950329;3.70048429156836;7;2.91816714267975;43.349529;6.177013;43.349529, 6.177013
7;86930;JULIETTE GRECO;PROVENCE-ALPES-COTE D'AZUR;BOULEVARD LA COLLE BELLE;6033;Carros;13010;6;6701;Nice;966577;04-Unités urbaines de 100 000 hbts ou plus;1;277;24;130;6176;3350;84.3582089552239;De 5 à 10 000 entrées;;NON;NON;;FIXE;NON;B;114;92;0;59.6457012839265;22.3793271574842;15.0820737851455;2.89289777344385;51;50.1706484641638;43.772944;7.193186;43.772944, 7.193186
7;87646;CINE LES CALANQUES;PROVENCE-ALPES-COTE D'AZUR;20 AVENUE EMMANUEL AGOSTINI;13022;Cassis;6889;13;13211;Cassis;6889;06-autres communes et unités urbaines;1;111;52;980;10207;6336;61.0953282828283;De 10 à 20 000 entrées;;OUI;E;;FIXE;NON;I;168;146;5;66.8450759050214;21.3312572985598;7.74620474892955;4.0774620474893;104;45.241339042429;43.215622;5.538828;43.215622, 5.538828
7;155143;CINEMA MUNICIPAL;OCCITANIE;CINEMA MUNICIPAL;11140;Ferrals-les-Corbières;1277;11;0;Zone rurale;14908533;04-Unités urbaines de 100 000 hbts ou plus;1;150;53;1089;19823;9039;119.305232879743;De 10 à 20 000 entrées;;OUI;E;JPPR;ITINERANT;NON;R;270;173;5;72.2331154684096;17.4128540305011;7.34204793028322;3.0119825708061;162;34.6459694989107;43.158478;2.727734;43.158478, 2.727734
7;157011;ESPACE CULTUREL;PROVENCE-ALPES-COTE D'AZUR;2 RUE DU TERME;83055;Fayence;5857;83;83301;Fayence;11492;06-autres communes et unités urbaines;1;254;51;136;2814;1388;102.737752161383;De 2 à 5 000 entrées;;NON;NON;;FIXE;NON;C;130;116;3;46.8017057569296;36.9225302061123;14.7832267235252;1.49253731343284;40;37.3845060412225;43.620961;6.698294;43.620961, 6.698294
8;248151;MARLY-MAGES;GRAND EST;1, RUE DE METZ;57447;Marly;10187;57;57701;Metz;294649;04-Unités urbaines de 100 000 hbts ou plus;1;146;53;719;19321;10291;87.7465746769021;De 10 à 20 000 entrées;;OUI;C;;FIXE;NON;B;248;191;15;72.3657215003419;11.2367825766742;10.9895312746594;5.40796464832448;112;31.9743279499185;49.06744;6.148929;49.06744, 6.148929
9;287452;NEOPOLIS;GRAND EST;1 BIS  RUE DE LA COMEDIE;88321;Neufchâteau;6925;88;88204;Neufchâteau;6925;06-autres communes et unités urbaines;3;385;53;5407;73913;50956;45.0525943951645;De 50 à 80 000 entrées;;OUI;E;JP;FIXE;NON;I;211;153;117;48.0517075962364;37.2574102438942;11.7082695123799;2.98261264748952;81;9.89884028210264;48.353974;5.695801;48.353974, 5.695801
9;310485;LA SALLE DU NORD-EST;GRAND EST;36, RUE MICHEL RONDET;54425;Piennes;2496;54;54111;Piennes;4719;06-autres communes et unités urbaines;1;123;5;10;142;1501;-90.5396402398401;Moins de 2000 entrées;;NON;NON;;FIXE;NON;C;6;0;0;18.3098591549296;81.6901408450704;0;0;1;4.22535211267606;49.301154;5.786676;49.301154, 5.786676
8;368723;ODYSSEE;GRAND EST;3, RUE DES FRANCS BOURGEOIS;67482;Strasbourg;293538;67;67701;Strasbourg (partie française);489338;04-Unités urbaines de 100 000 hbts ou plus;2;304;15;1360;16258;19791;-17.8515486837451;De 10 à 20 000 entrées;;OUI;A;RDJPPR;FIXE;NON;C;190;9;1;25.7449577098243;20.644111906311;50.8458035133377;2.765126870527;167;80.8132726089785;48.582601;7.745895;48.582601, 7.745895
8;369792;UGC CINE CITE;GRAND EST;25 ROUTE DU RHIN;67482;Strasbourg;293538;67;67701;Strasbourg (partie française);489338;04-Unités urbaines de 100 000 hbts ou plus;22;5407;53;39703;845034;542741;55.6974689584903;De 700 000 à 1 million d'entrées;UGC;NON;NON;;FIXE;OUI;C;565;312;274;36.7253461392909;43.7559686858274;14.0965975080106;5.42208766687111;283;18.832160257954;48.572723;7.764957;48.572723, 7.764957
8;724960;KINEPOLIS WAVES;GRAND EST;Chemin de Pie Grièche Cc Waves - Actisud;57487;Moulins-lès-Metz;5079;57;57701;Metz;294649;04-Unités urbaines de 100 000 hbts ou plus;6;882;53;8988;157441;90698;73.5881717347681;De 150 à 200 000 entrées;KINEPOLIS;NON;NON;;FIXE;NON;B;108;90;88;26.6138013988506;56.2270491125127;14.0107809506838;3.14836853795289;3;0.214473458114034;49.103472;6.103766;49.103472, 6.103766
9;426151;VARIETES;GRAND EST;10 RUE JULES FERRY;88468;Le Thillot;3372;88;88303;Le Thillot;15261;06-autres communes et unités urbaines;2;332;51;925;9394;7004;34.1233580810965;De 5 à 10 000 entrées;;NON;NON;;FIXE;NON;C;142;132;37;51.3622493461203;38.5680034873583;7.61769834350479;2.45204882301657;28;8.19529206625981;47.881078;6.765526;47.881078, 6.765526
1;321;PATHE;ILE-DE-FRANCE;32 RUE LOUIS LEGRAND;75102;Paris 2e Arrondissement;21277;75;851;Paris;10949158;01-Paris;6;1138;53;9024;269401;181402;48.5104905127838;De 200 à 300 000 entrées;PATHE-GAUMONT;NON;NON;;FIXE;NON;C;128;107;89;42.5633209137782;36.7773136125852;14.4322757893945;6.22708968424222;54;30.1926912799669;48.870632;2.334338;48.870632, 2.334338
1;481;GAUMONT PARNASSE;ILE-DE-FRANCE;3 RUE D'ODESSA;75114;Paris 14e Arrondissement;134926;75;851;Paris;10949158;01-Paris;15;2876;53;20220;463860;475104;-2.36663972519701;De 450 à 700 000 entrées;PATHE-GAUMONT;NON;NON;;FIXE;OUI;C;259;222;189;45.4593008365131;31.5760914390891;18.5591311029211;4.40547662147673;122;32.4182478805006;48.843074;2.324424;48.843074, 2.324424
1;814;LUCERNAIRE FORUM;ILE-DE-FRANCE;53 RUE NOTRE DAME DES CHAMPS;75106;Paris 6e Arrondissement;40452;75;851;Paris;10949158;01-Paris;3;148;53;5611;38871;14232;173.1239460371;De 30 à 40 000 entrées;;OUI;A;RDJPPR;FIXE;NON;C;281;155;11;53.3621381076816;14.444645675403;24.0174898450234;8.17572637189206;248;91.9639854078808;48.844244;2.330407;48.844244, 2.330407
1;7394;GAUMONT CONVENTION;ILE-DE-FRANCE;27 RUE ALAIN CHARTIER;75115;Paris 15e Arrondissement;231186;75;851;Paris;10949158;01-Paris;9;1263;53;16389;377741;245633;53.7826757805344;De 300 à 450 000 entrées;PATHE-GAUMONT;NON;NON;;FIXE;OUI;C;233;200;175;58.8172906958059;19.6456692913386;13.7607799025122;7.77626011034335;149;56.2938561251272;48.837759;2.296259;48.837759, 2.296259
2;303281;CINE 104;ILE-DE-FRANCE;104 AV JEAN LOLIVE;93055;Pantin;60597;93;851;Paris;10949158;02-Petite Couronne;3;457;48;3062;76341;50331;51.6778923526256;De 50 à 80 000 entrées;;OUI;C;RDJPPR;FIXE;NON;B;281;165;73;65.0751508178828;17.0538519403513;6.63303686003806;11.2379603817278;218;83.6187441922209;48.89218;2.408907;48.89218, 2.408907
2;443601;LE NORMANDY;ILE-DE-FRANCE;72 BOULEVARD DE LA REPUBLIQUE;92076;Vaucresson;8941;92;851;Paris;10949158;02-Petite Couronne;2;295;52;2334;30505;20029;52.3041589694942;De 30 à 40 000 entrées;UGC;OUI;C;;FIXE;NON;B;245;162;47;72.6598327488535;12.671971944969;10.2542487186404;4.41394658753709;145;47.8318046938225;48.837881;2.157499;48.837881, 2.157499
4;408744;CINEMA MICHEL LEGRAND;NOUVELLE AQUITAINE;31 BIS RUE DU LOGIS VERT;17380;Saint-Palais-sur-Mer;4002;17;17402;Royan;37242;05-Unités urbaines de 20 000 à 100 000 hbts;1;175;53;684;6688;6391;4.64716006884682;De 5 à 10 000 entrées;;NON;NON;;FIXE;NON;B;206;153;9;65.6510583707505;23.2200128287364;6.87940987812701;4.24951892238615;100;27.1969211032713;45.64428;-1.088823;45.64428, -1.088823
4;420443;AREVI;NOUVELLE AQUITAINE;AV DU DOCTEUR LEMOYNE;87187;Saint-Yrieix-la-Perche;7147;87;87203;Saint-Yrieix-la-Perche;7147;06-autres communes et unités urbaines;2;264;53;1529;21277;13049;63.0546402023143;De 20 à 30 000 entrées;;OUI;E;JP;FIXE;NON;I;306;240;4;58.089972354863;28.7006785624529;9.78637848705705;3.42297059562704;170;28.7308368936919;45.51138;1.20357;45.51138, 1.20357
6;328244;CINE DYKE;AUVERGNE-RHONE-ALPES;PLACE MICHELET;43157;Le Puy-en-Velay;19784;43;43401;Le Puy-en-Velay;39897;05-Unités urbaines de 20 000 à 100 000 hbts;6;1151;53;7602;178200;106838;66.7945861959228;De 150 à 200 000 entrées;;OUI;D;;FIXE;NON;C;276;213;157;46.3062991046958;39.2797597295816;10.6688516353006;3.74508953042207;127;14.6623195687923;45.040387;3.886089;45.040387, 3.886089
6;372341;SALLE DES FETES;AUVERGNE-RHONE-ALPES;SALLE DES FETES;63314;Saint-Amant-Roche-Savine;527;63;0;Zone rurale;14908533;04-Unités urbaines de 100 000 hbts ou plus;1;100;47;396;14338;7501;91.1478469537395;De 10 à 20 000 entrées;;OUI;E;JP;ITINERANT;NON;R;78;42;0;62.2502733326707;27.7705993440016;6.65937779544777;3.31974952787993;52;78.5707186164397;45.583013;3.621912;45.583013, 3.621912
7;90324;LE PARADISO;PROVENCE-ALPES-COTE D'AZUR;60 RUE JEAN MERMOZ;84035;CAVAILLON;26206;84;754;Avignon;470065;04-Unités urbaines de 100 000 hbts ou plus;2;204;53;2138;14583;11016;32.380174291939;De 10 à 20 000 entrées;;NON;NON;;FIXE;NON;B;185;157;103;77.4943427278338;2.03661797983954;12.2745662758006;8.19447301652609;176;96.5507783035041;43.834963;5.042283;43.834963, 5.042283
4;411540;LES TOILES DU MOUN;NOUVELLE AQUITAINE;447 AVENUE DU CORPS FRANC;40281;Saint-Pierre-du-Mont;10087;40;40401;Mont-de-Marsan;41453;05-Unités urbaines de 20 000 à 100 000 hbts;4;388;53;7069;63025;39700;58.7531486146096;De 50 à 80 000 entrées;;NON;NON;;FIXE;NON;B;144;97;91;30.9366948240436;53.7751541045628;12.3463031212289;2.9418479501647;38;5.68311535827272;43.885758;-0.521675;43.885758, -0.521675
4;433913;LE CRISTAL;NOUVELLE AQUITAINE;99 AVENUE BEAUPREAU;17452;La Tremblade;4391;17;17301;La Tremblade;12508;06-autres communes et unités urbaines;1;259;51;864;7727;7237;6.77076136520658;De 5 à 10 000 entrées;;OUI;E;JP;FIXE;NON;C;221;187;12;65.3011355469312;19.6061520770447;8.78252120166739;6.31019117435676;137;60.212735374443;45.796268;-1.166123;45.796268, -1.166123
4;458401;CYRANO;NOUVELLE AQUITAINE;9 BD DE LA MARINE;47323;Villeneuve-sur-Lot;22385;47;47401;Villeneuve-sur-Lot;49674;05-Unités urbaines de 20 000 à 100 000 hbts;6;676;53;6996;68293;41690;63.8114655792756;De 50 à 80 000 entrées;GRAND ECRAN;NON;NON;;FIXE;NON;C;174;155;123;34.1841399038603;51.097053879501;10.7419859034475;3.97682031319119;38;5.49411660621074;44.408808;0.704017;44.408808, 0.704017
5;120181;GAUMONT CITE EUROPE;HAUTS DE FRANCE;1001 BOULEVARD DU KENT;62239;Coquelles;2635;62;62504;Calais;93524;05-Unités urbaines de 20 000 à 100 000 hbts;12;2371;50;18667;332954;218858;52.1324329016988;De 300 à 450 000 entrées;PATHE-GAUMONT;NON;NON;;FIXE;OUI;B;262;216;165;33.9232297813522;49.7397337753272;13.0096817220823;3.32735472123839;82;2.35676283864099;50.931939;1.8108;50.931939, 1.8108
5;287462;CINEMA 2001;HAUTS DE FRANCE;23 AV DE LA CONCORDE;62604;Neufchâtel-Hardelot;3818;62;62207;Neufchâtel-Hardelot;7463;06-autres communes et unités urbaines;1;198;50;992;11924;9694;23.0039199504848;De 10 à 20 000 entrées;;NON;NON;;FIXE;NON;C;100;88;22;65.211172808346;24.4657580346626;6.99141847551742;3.331650681474;20;9.06949352179034;50.632496;1.578876;50.632496, 1.578876
5;423382;MODERN CINE;HAUTS DE FRANCE;1, RUE DU 8 MAI;59586;Templeuve-en-Pévèle;6559;59;59211;Templeuve;10829;06-autres communes et unités urbaines;1;170;53;1072;24781;17336;42.9453161052146;De 20 à 30 000 entrées;;NON;NON;;FIXE;NON;C;92;77;41;50.3449965296207;36.1980974155881;13.1221165230882;0.334789531702936;14;4.62581145633446;50.527126;3.168609;50.527126, 3.168609
6;19983;CINE ACTUEL MJC;AUVERGNE-RHONE-ALPES;3 RUE DU 8 MAI;74012;Annemasse;37859;74;652;Genève (SUI) - Annemasse (partie française);195045;04-Unités urbaines de 100 000 hbts ou plus;1;111;49;973;21010;7501;180.095987201706;De 20 à 30 000 entrées;;OUI;C;JP;FIXE;NON;C;170;102;0;49.1365864527629;17.5969251336898;19.2903297682709;13.9761586452763;149;84.75935828877;46.191752;6.231982;46.191752, 6.231982
6;62264;Ciné Château;AUVERGNE-RHONE-ALPES;Ecoquartier du Château des Sires de Faucigny;74042;Bonneville;12902;74;74502;Cluses;93895;05-Unités urbaines de 20 000 à 100 000 hbts;3;632;53;4003;85986;43701;96.7597995469211;De 80 à 100 000 entrées;;NON;NON;;FIXE;NON;C;239;199;104;38.2181426763346;47.4397038123514;10.5250706757668;3.81708283554725;108;10.210430442034;46.068578;6.412198;46.068578, 6.412198
6;140713;RENE FALLET;AUVERGNE-RHONE-ALPES;ROUTE DE VICHY;3102;Dompierre-sur-Besbre;3062;3;3105;Dompierre-sur-Besbre;3062;06-autres communes et unités urbaines;1;130;53;1083;12399;8663;43.1259378968025;De 10 à 20 000 entrées;;OUI;E;JPPR;FIXE;NON;I;265;186;8;53.6250341126171;23.0328390794142;12.3442190484854;10.9979077594833;125;32.4206313108342;46.512529;3.675133;46.512529, 3.675133
6;182462;LE CHARMIEUX;AUVERGNE-RHONE-ALPES;LE CHINAILLON;74136;Le Grand-Bornand;2135;74;74101;Le Grand-Bornand;2135;06-autres communes et unités urbaines;1;150;28;338;5772;2781;107.551240560949;De 5 à 10 000 entrées;;NON;NON;;FIXE;NON;I;111;96;43;54.031117397454;37.9243281471004;5.90523338048091;2.13932107496464;32;10.04243281471;45.969321;6.446761;45.969321, 6.446761
6;317613;CINE COMTE;BOURGOGNE-FRANCHE-COMTE;19 RUE DU GENERAL DE GAULLE;39434;Poligny;4384;39;39107;Poligny;4384;06-autres communes et unités urbaines;1;212;53;1081;19790;13663;44.843738564005;De 10 à 20 000 entrées;;OUI;E;;FIXE;NON;I;199;165;36;54.3102522812668;31.207729468599;10.1449275362319;4.33709071390231;80;27.6811594202899;46.836349;5.702889;46.836349, 5.702889
6;350390;L'ABREUVOIR;BOURGOGNE-FRANCHE-COMTE;RUE PRINCIPALE;21579;Salives;213;21;0;Zone rurale;14908533;04-Unités urbaines de 100 000 hbts ou plus;1;149;34;39;809;470;72.1276595744681;Moins de 2000 entrées;;NON;NON;;FIXE;NON;R;35;30;0;82.4902723735409;2.72373540856031;13.7483787289235;1.03761348897536;4;6.74448767833982;47.620428;4.88235;47.620428, 4.88235
6;402431;SALLE ELOI VILLE;AUVERGNE-RHONE-ALPES;SALLE DE REUNION COMMUNALE;38419;Saint-Martin-de-Clelles;185;38;0;Zone rurale;14908533;04-Unités urbaines de 100 000 hbts ou plus;1;25;50;458;11425;5533;106.488342671245;De 10 à 20 000 entrées;;OUI;E;JP;ITINERANT;NON;R;95;68;0;62.026817476968;20.3776338593451;11.2742862355195;6.32126242816747;62;61.5524947550853;44.833366;5.59397;44.833366, 5.59397
7;13683;ESPACE CULTUREL MUNICIPAL;CORSE;BOULEVARD PASCAL ROSSINI;2A004;Ajaccio;73483;2A;2A501;Ajaccio;73483;05-Unités urbaines de 20 000 à 100 000 hbts;1;319;2;28;1364;;;Moins de 2000 entrées;;NON;NON;;FIXE;NON;I;14;3;0;0;2.63929618768328;80.4985337243402;16.8621700879765;7;64.0029325513197;41.915976;8.731036;41.915976, 8.731036
7;249942;ALHAMBRA;PROVENCE-ALPES-COTE D'AZUR;2 RUE DU CINEMA;13055;Marseille;876602;13;759;Marseille - Aix-en-Provence;1630325;04-Unités urbaines de 100 000 hbts ou plus;1;256;50;1428;34536;20583;67.7889520478064;De 30 à 40 000 entrées;;OUI;A;RDJPPR;FIXE;NON;C;257;157;26;59.8504712635533;13.0926227765573;14.7473602154348;12.3095457444547;175;79.2679469917086;43.360713;5.330247;43.360713, 5.330247
7;285966;MEGA CGR;OCCITANIE;ROUTE DE PERPIGNAN;11262;Narbonne;57320;11;11502;Narbonne;57320;05-Unités urbaines de 20 000 à 100 000 hbts;9;1258;53;17393;256573;148166;73.1659085080248;De 200 à 300 000 entrées;CGR;NON;NON;;FIXE;OUI;I;199;168;161;35.5592314941909;49.5364015689219;11.3007739023999;3.60359303448734;25;2.56025215374809;43.163076;2.984491;43.163076, 2.984491
7;405462;CINEMAS MARCEL PAGNOL;PROVENCE-ALPES-COTE D'AZUR;107 ROUTE DU PLAN DE LA TOUR;83115;Sainte-Maxime;14954;83;83310;Sainte-Maxime;19625;06-autres communes et unités urbaines;3;450;53;4391;104821;60917;72.0718354482328;De 100 à 150 000 entrées;;NON;NON;;FIXE;NON;C;201;158;94;39.7971240021901;45.6326907005562;11.3599031728192;3.21028212443445;70;7.33984611394484;43.32495;6.62431;43.32495, 6.62431
7;423501;LE BEGO;PROVENCE-ALPES-COTE D'AZUR;AV DU 16 SEPTEMBRE 1947;6163;Tende;2193;6;0;Zone rurale;14908533;04-Unités urbaines de 100 000 hbts ou plus;1;157;52;117;2479;1161;113.522825150732;De 2 à 5 000 entrées;;NON;NON;;FIXE;NON;R;117;107;0;54.780153287616;28.0354981847519;11.9806373537717;5.20371117386043;32;17.950786607503;44.08886;7.593211;44.08886, 7.593211
1;483;ENTREPOT;ILE-DE-FRANCE;7 ET 9 RUE FRANCIS DE PRESSENSE;75114;Paris 14e Arrondissement;134926;75;851;Paris;10949158;01-Paris;3;268;53;4324;50500;29174;73.0993350243367;De 50 à 80 000 entrées;;OUI;A;RDJPPR;FIXE;NON;C;376;172;14;62.2322665636996;10.355009426034;19.6084221046176;7.80430190564881;302;89.0521725304927;48.83393;2.31652;48.83393, 2.31652
1;751;ST ANDRE DES ARTS;ILE-DE-FRANCE;30 RUE ST ANDRE DES ARTS;75106;Paris 6e Arrondissement;40452;75;851;Paris;10949158;01-Paris;3;510;53;4905;48614;24299;100.065846331125;De 40 à 50 000 entrées;;OUI;A;RDPR;FIXE;NON;C;267;122;61;73.871810935171;7.77040893478214;12.5207923786481;5.83698775139876;181;81.0308699315202;48.853361;2.34211;48.853361, 2.34211
1;4731;MK2 QUAI DE SEINE;ILE-DE-FRANCE;14 QUAI DE LA SEINE;75119;Paris 19e Arrondissement;184156;75;851;Paris;10949158;01-Paris;6;992;53;12424;319039;198514;60.7136020633305;De 300 à 450 000 entrées;MK2;OUI;A;RDJP;FIXE;NON;C;230;162;126;70.7925121603695;8.25594916392342;10.5583124518908;10.3932262238163;177;92.0051098118214;48.885073;2.371493;48.885073, 2.371493
1;8331;UGC DANTON;ILE-DE-FRANCE;99 BD ST GERMAIN;75106;Paris 6e Arrondissement;40452;75;851;Paris;10949158;01-Paris;4;612;53;8451;155081;99447;55.9433668185063;De 150 à 200 000 entrées;UGC;NON;NON;;FIXE;NON;C;124;117;61;69.1923816500321;13.4622679765066;12.5413685298311;4.80398184363023;71;58.7367718811726;48.852138;2.338995;48.852138, 2.338995
2;36013;LE CIN'HOCHE;ILE-DE-FRANCE;6 RUE HOCHE;93006;Bagnolet;38571;93;851;Paris;10949158;02-Petite Couronne;2;288;49;2064;31919;17239;85.1557514937061;De 30 à 40 000 entrées;;OUI;C;RDJPPR;FIXE;NON;B;249;166;26;64.8369624486532;16.7945036169981;7.70656875931513;10.6619651750336;199;83.0491839034498;48.869237;2.417029;48.869237, 2.417029
2;110372;STUDIO 31;ILE-DE-FRANCE;31 PLACE D'ARIANE;77111;Chessy;6780;77;851;Paris;10949158;03-Grande couronne;2;216;51;3478;48738;28990;68.120041393584;De 40 à 50 000 entrées;;OUI;C;;FIXE;NON;B;219;146;35;16.1095185903381;63.0975465812326;13.9406458140123;6.852289014417;92;12.5748250569092;48.856412;2.773682;48.856412, 2.773682
2;120963;THEATRE DU CORMIER;ILE-DE-FRANCE;123 RUE DE SAINT-GERMAIN;95176;Cormeilles-en-Parisis;26297;95;851;Paris;10949158;03-Grande couronne;1;307;40;196;8623;3323;159.494432741499;De 5 à 10 000 entrées;;NON;NON;;FIXE;NON;B;171;120;1;49.205972979379;28.9997629770088;9.2083432092913;12.5859208343209;83;42.9130125622185;48.959824;2.189151;48.959824, 2.189151
2;128541;CINEMA DU PALAIS;ILE-DE-FRANCE;40 ALLEE PARMENTIER;94028;Créteil;92984;94;851;Paris;10949158;02-Petite Couronne;3;490;6;430;5746;36917;-84.435354985508;De 5 à 10 000 entrées;;OUI;C;RDJPPR;FIXE;NON;B;48;15;9;77.90546802595;9.52734012974977;10.6580166821131;1.90917516218721;42;93.5681186283596;48.786063;2.444158;48.786063, 2.444158
2;148321;SALLE SERGE GAINSBOURG;ILE-DE-FRANCE;RUE DU GENERAL JULIEN;93031;Épinay-sur-Seine;54569;93;851;Paris;10949158;02-Petite Couronne;1;180;22;69;3654;2006;82.1535393818544;De 2 à 5 000 entrées;;NON;NON;;FIXE;NON;B;14;0;0;47.6329631794272;46.5225014611338;3.03915838690824;2.80537697253068;14;100;48.95411;2.312115;48.95411, 2.312115
2;244715;LE CHAPLIN;ILE-DE-FRANCE;PLACE MENDES FRANCE;78361;Mantes-la-Jolie;44114;78;851;Paris;10949158;03-Grande couronne;1;300;35;129;7936;3058;159.516023544801;De 5 à 10 000 entrées;;NON;NON;;FIXE;NON;B;45;16;2;70.4554251064379;6.8894336214682;14.4626499806477;8.19249129144627;41;97.2519674880661;49.000101;1.683456;49.000101, 1.683456
2;252712;LES 2 SCENES;ILE-DE-FRANCE;PLACE HENRI DUNANT;78380;Maule;6182;78;78301;Maule;10771;03-Grande couronne;1;102;50;1405;22048;12608;74.8730964467005;De 20 à 30 000 entrées;;OUI;E;RDJPPR;FIXE;NON;C;246;213;1;67.9221287419292;16.3030718059088;10.0714145959695;5.70338485619253;149;45.0107611035023;48.916554;1.821165;48.916554, 1.821165
2;314451;ESPACE PAUL VALERY;ILE-DE-FRANCE;72 ET 74 AVENUE ARDOUIN;94059;Le Plessis-Trévise;19733;94;851;Paris;10949158;02-Petite Couronne;1;340;46;261;4359;3241;34.4955260721999;De 2 à 5 000 entrées;;NON;NON;;FIXE;NON;B;54;45;1;77.1736636843313;4.19821059876118;11.6769901353521;6.9511355815554;16;24.5698554714384;48.80535;2.578145;48.80535, 2.578145
2;317291;C2L POISSY;ILE-DE-FRANCE;18 RUE CHARLES DE GAULLE;78498;Poissy;40049;78;851;Paris;10949158;03-Grande couronne;5;973;53;7519;93001;61212;51.9326275893616;De 80 à 100 000 entrées;UGC;NON;NON;;FIXE;NON;B;197;132;102;35.1210636502143;48.8649940262844;12.4077910405226;3.60615128297875;70;6.05482665263666;48.92287;2.029616;48.92287, 2.029616
3;18291;PALACE;NORMANDIE;19 R SELLENICK / AV REPUBLIQUE;27016;Les Andelys;8193;27;27207;Les Andelys;8427;06-autres communes et unités urbaines;3;407;53;3546;62695;40620;54.3451501723289;De 50 à 80 000 entrées;;OUI;E;JP;FIXE;NON;C;288;203;70;37.2524024318494;47.5518075439629;11.6542459305746;3.54154409361313;160;10.8730470026803;49.246748;1.416469;49.246748, 1.416469
3;18701;NORMANDIE;CENTRE-VAL DE LOIRE;6 RUE DESIRE ROUSSEL;28007;Anet;2793;28;361;Ézy-sur-Eure;17898;06-autres communes et unités urbaines;1;250;45;197;5553;3330;66.7567567567568;De 5 à 10 000 entrées;;NON;NON;;FIXE;NON;C;99;83;0;57.6264739444656;27.1395968048688;11.3160897679726;3.91783948269304;21;17.6302776721187;48.857505;1.439036;48.857505, 1.439036
3;23561;L'ARGENTIS;CENTRE-VAL DE LOIRE;PLACE NICOLAS LEBLANC;18011;Argent-sur-Sauldre;2108;18;18101;Argent-sur-Sauldre;2108;06-autres communes et unités urbaines;1;126;50;357;6260;5145;21.6715257531584;De 5 à 10 000 entrées;;NON;NON;;FIXE;NON;I;123;105;4;65.7720344599072;24.4532803180915;9.29423459244533;0.480450629555997;32;9.85752153744202;47.558659;2.446881;47.558659, 2.446881
3;25722;CIRCUIT 1;CENTRE-VAL DE LOIRE;PLACE DE L'EGLISE;45008;Artenay;1998;45;0;Zone rurale;14908533;04-Unités urbaines de 100 000 hbts ou plus;1;100;46;1042;22008;10035;119.312406576981;De 20 à 30 000 entrées;;OUI;E;JPPR;ITINERANT;NON;R;106;57;0;64.7256268117785;25.6878401057824;4.5160962213294;5.0704368611097;54;42.267202359762;48.083036;1.87847;48.083036, 1.87847
3;45876;AGNES VARDA;HAUTS DE FRANCE;8 AV DE BOURGOGNE;60057;Beauvais;58306;60;60501;Beauvais;62875;05-Unités urbaines de 20 000 à 100 000 hbts;1;205;50;665;12005;5837;105.670721260922;De 10 à 20 000 entrées;;OUI;D;JPPR;FIXE;NON;C;181;100;3;56.7738883632923;17.0104068117313;15.7048249763482;10.5108798486282;131;76.4900662251656;49.437982;2.099627;49.437982, 2.099627
3;50834;CINEMA MULTIREX;NORMANDIE;2 RUE BERNARD GOMBERT;27056;Bernay;9935;27;27301;Bernay;11566;06-autres communes et unités urbaines;4;541;50;866;25163;;;De 20 à 30 000 entrées;;OUI;E;;FIXE;NON;C;202;138;24;42.9592712120593;40.0465705298419;12.6434903386576;4.35066791944115;92;21.7165733894358;49.083411;0.598278;49.083411, 0.598278
3;59351;LOUIS JOUVET;HAUTS DE FRANCE;6, RUE CURIE;2095;Bohain-en-Vermandois;5778;2;2202;Bohain-en-Vermandois;5778;06-autres communes et unités urbaines;1;142;45;358;5577;3558;56.7453625632378;De 5 à 10 000 entrées;;NON;NON;;FIXE;NON;I;124;98;2;45.3797231575009;34.5117845117845;17.3213617658062;2.78713056490834;23;21.7358772914329;49.983958;3.455918;49.983958, 3.455918
3;61082;LE XENON;NORMANDIE;60 RUE GUILLET;76114;Bolbec;11684;76;76302;Bolbec;18413;06-autres communes et unités urbaines;2;495;53;2027;19397;13214;46.7912819736643;De 10 à 20 000 entrées;;NON;NON;;FIXE;NON;C;100;87;43;35.2547337587614;49.968615964013;13.2702165498483;1.50643372737734;17;4.89067894131185;49.571514;0.475348;49.571514, 0.475348
3;73021;CELTIC;BRETAGNE;187 RUE JEAN JAURES;29019;Brest;142110;29;29701;Brest;207101;04-Unités urbaines de 100 000 hbts ou plus;8;892;53;15346;108345;63836;69.7239801992606;De 100 à 150 000 entrées;CGR;NON;NON;;FIXE;OUI;C;160;132;128;28.4825386227489;52.2951093306627;14.1221090895603;5.10024295702814;9;1.08310614069252;48.398083;-4.473843;48.398083, -4.473843
3;94711;FAMILIAL;GRAND EST;RUE DIDEROT;52093;Chalindrey;2461;52;52104;Chalindrey;3561;06-autres communes et unités urbaines;1;393;48;191;7332;4844;51.3625103220479;De 5 à 10 000 entrées;;NON;NON;;FIXE;NON;C;87;68;3;57.5833210982235;26.7802084862722;14.6087211863163;1.02774922918808;12;15.6071061518132;47.803369;5.431466;47.803369, 5.431466
3;95562;MEGARAMA;HAUTS DE FRANCE;ZAC PORTE SUD DE L'OISE;60139;Chambly;10266;60;459;Persan - Beaumont-sur-Oise;39344;05-Unités urbaines de 20 000 à 100 000 hbts;7;1314;53;12032;233307;142911;63.2533534857359;De 200 à 300 000 entrées;MEGARAMA;NON;NON;;FIXE;NON;C;176;140;133;25.1440587587725;59.2077198293656;11.9315054355305;3.71671597633136;24;1.82976124948397;49.155627;2.248819;49.155627, 2.248819
3;99031;ELYSEE;HAUTS DE FRANCE;25, AVENUE DU MARECHAL JOFFRE;60141;Chantilly;10821;60;60402;Chantilly;37945;05-Unités urbaines de 20 000 à 100 000 hbts;4;520;53;4328;62917;43500;44.6367816091954;De 50 à 80 000 entrées;;OUI;D;;FIXE;NON;C;210;159;113;50.8603621730382;33.4438631790745;12.3380281690141;3.35774647887324;97;23.5573440643863;49.191375;2.464237;49.191375, 2.464237
3;115334;LE CONNETABLE;PAYS DE LA LOIRE;ZAC ILOT CHAMP DE FOIRE;44043;Clisson;7752;44;365;Clisson;20614;05-Unités urbaines de 20 000 à 100 000 hbts;2;432;53;1344;53503;31452;70.1100089024545;De 50 à 80 000 entrées;;OUI;E;JP;FIXE;NON;C;302;234;105;55.6696183684664;29.9878536164877;10.8318313611786;3.51069665386725;158;29.3315570880025;47.083295;-1.287262;47.083295, -1.287262
3;141712;LA BALISE;BRETAGNE;39 RUE LOUIS PASTEUR;29046;Douarnenez;14379;29;29307;Douarnenez;14379;06-autres communes et unités urbaines;2;364;52;2499;19853;1013;1859.82230997039;De 10 à 20 000 entrées;;NON;NON;;FIXE;NON;I;179;142;70;45.3378825686205;38.7890207261802;11.284819473443;4.58827723175638;52;11.2491724805215;48.088483;-4.329101;48.088483, -4.329101
3;148024;LES PRAIRIALES;CENTRE-VAL DE LOIRE;AVENUE DE LA PRAIRIE;28140;Épernon;5669;28;355;Épernon;12557;06-autres communes et unités urbaines;1;544;46;280;18764;9568;96.1120401337793;De 10 à 20 000 entrées;;NON;NON;;FIXE;NON;C;133;110;1;61.6344997422828;20.3653857167402;14.500887692572;3.49922684840502;42;23.4980814386347;48.605997;1.675422;48.605997, 1.675422
3;192961;CINEMA DE LA PLAGE;NORMANDIE;34 RUE DE L AUMESLE;50231;Hauteville-sur-Mer;712;50;0;Zone rurale;14908533;04-Unités urbaines de 100 000 hbts ou plus;2;282;53;1698;31628;22779;38.8471838096492;De 30 à 40 000 entrées;;OUI;E;RDJPPR;FIXE;NON;R;339;252;56;65.747310216182;21.3750374737684;8.88045035142067;3.99720195862896;201;32.9003031211485;48.977726;-1.557167;48.977726, -1.557167
3;215723;NEW VOX;GRAND EST;15 RUE GRAND BIE;52269;Langres;8081;52;52202;Langres;9649;06-autres communes et unités urbaines;2;344;52;2746;35042;25771;35.9745450312367;De 30 à 40 000 entrées;;OUI;E;JPPR;FIXE;NON;C;222;164;62;44.6456210028327;39.5350874631312;12.0053733609789;3.81391817305727;100;16.5084834856759;47.861736;5.332835;47.861736, 5.332835
3;221971;CINEMA ST MICHEL;PAYS DE LA LOIRE;PLACE DU GENERAL CHARETTE;44081;Legé;4742;44;44114;Legé;4742;06-autres communes et unités urbaines;1;263;53;428;9380;796;1078.391959799;De 5 à 10 000 entrées;;OUI;E;;FIXE;NON;I;208;170;0;60.2830075548627;17.8558580165487;12.1957069192949;9.66542750929368;93;31.3826597913419;46.88534;-1.59841;46.88534, -1.59841
3;243552;REX;PAYS DE LA LOIRE;2 RUE DE LA GARE;72180;Mamers;5252;72;72202;Mamers;5761;06-autres communes et unités urbaines;2;271;53;2614;35401;23125;53.0854054054054;De 30 à 40 000 entrées;;OUI;E;JPPR;FIXE;NON;C;355;260;100;58.3819748979283;29.9894147890519;8.15666112203236;3.47194919098745;186;28.3199758052321;48.347714;0.363927;48.347714, 0.363927
3;284631;KATORZA;PAYS DE LA LOIRE;3 RUE CORNEILLE;44109;Nantes;325857;44;44701;Nantes;688577;04-Unités urbaines de 100 000 hbts ou plus;6;881;53;9070;214152;133924;59.9056181117649;De 200 à 300 000 entrées;CINEVILLE;OUI;A;RDJPPR;FIXE;NON;C;334;193;179;66.3125600332602;9.3998346546624;13.6094504895847;10.6781548224927;273;91.8416890074023;47.213603;-1.562528;47.213603, -1.562528
3;287472;NORMANDY;NORMANDIE;18 RUE POISSONNIERE;76462;Neufchâtel-en-Bray;4855;76;76203;Neufchâtel-en-Bray;5284;06-autres communes et unités urbaines;1;227;53;579;18206;11160;63.1362007168459;De 10 à 20 000 entrées;;OUI;E;JP;FIXE;NON;C;173;134;1;50.4179204279505;34.6483896132843;12.4038783015714;2.5298116571938;76;22.8797503621977;49.730796;1.442643;49.730796, 1.442643
3;298834;PATHE ORLEANS;CENTRE-VAL DE LOIRE;2 RUE DES HALLES;45234;Orléans;119380;45;45701;Orléans;291555;04-Unités urbaines de 100 000 hbts ou plus;12;2309;53;19662;420120;257003;63.4689089232422;De 300 à 450 000 entrées;PATHE-GAUMONT;NON;NON;;FIXE;OUI;C;290;242;181;39.7056884095329;42.6154742579267;12.2234984090293;5.45533892351112;124;15.1112240762899;47.8985684;1.90881730000001;47.89856839999999, 1.9088173000000097
3;320333;CINEVILLE;BRETAGNE;27 RUE DE LA GARE;29220;Pont-l'Abbé;8786;29;29306;Pont-l'Abbé;15344;06-autres communes et unités urbaines;4;610;53;5295;92728;57398;61.5526673403255;De 80 à 100 000 entrées;CINEVILLE;OUI;E;;FIXE;NON;C;224;143;95;45.5820059127212;42.4723116974805;9.25407051140626;2.69161187839209;95;8.34951242112695;47.863407;-4.229693;47.863407, -4.229693
3;333304;CINE'MANIVEL;BRETAGNE;12 QUAI JEAN BART;35236;Redon;10060;35;452;Redon;21862;05-Unités urbaines de 20 000 à 100 000 hbts;7;1065;53;10362;168577;100875;67.1147459727386;De 150 à 200 000 entrées;;OUI;D;RDJPPR;FIXE;NON;C;487;330;151;50.5927469164255;34.4284862675689;10.6129046135315;4.36586220247423;312;23.5033831744686;47.643971;-2.08863;47.643971, -2.08863
3;357904;LE MAINGUE;PAYS DE LA LOIRE;PLACE DU PORT;49331;Segré-en-Anjou Bleu;18478;49;49212;Segré;18478;06-autres communes et unités urbaines;3;375;53;2453;47238;30486;54.9498130289313;De 40 à 50 000 entrées;;OUI;E;JPPR;FIXE;NON;C;233;176;59;49.1761449638888;39.9342645850452;8.11529645807205;2.77429399299399;110;15.0845478527873;47.68565;-0.868807;47.68565, -0.868807
3;374431;SAINT JOSEPH;PAYS DE LA LOIRE;11 PLACE DE L'EGLISE;49292;Val-du-Layon;3503;49;0;Zone rurale;14908533;04-Unités urbaines de 100 000 hbts ou plus;1;300;47;633;30679;16514;85.7757054620322;De 30 à 40 000 entrées;;NON;NON;;ITINERANT;NON;R;135;102;2;76.0077519379845;17.0436927413672;2.92811839323467;4.02043692741367;47;26.3777307963354;47.3292625;-0.670713100000057;47.3292625, -0.6707131000000572
3;418992;CASINO MUNICIPAL;NORMANDIE;LE PERREY;76655;Saint-Valery-en-Caux;4068;76;76119;Saint-Valery-en-Caux;4068;06-autres communes et unités urbaines;1;189;53;783;10859;7294;48.8757883191664;De 10 à 20 000 entrées;;NON;NON;;FIXE;NON;I;188;155;12;50.8810155361879;34.7669571807503;12.0784388025767;2.27358848048503;65;27.4441076165214;49.863;0.706604;49.863, 0.706604
3;424781;ST LOUIS;NORMANDIE;15 RUE DE LA CROIX;61484;Val-au-Perche;3482;61;61102;Le Theil;3482;06-autres communes et unités urbaines;1;221;44;342;7146;3845;85.851755526658;De 5 à 10 000 entrées;;OUI;E;JP;FIXE;NON;C;147;117;2;52.5015933715743;20.3314212874442;20.4270235818993;6.73996175908222;55;50.2390057361377;48.265259;0.690629;48.265259, 0.690629
3;431771;MEGA CGR 2 LIONS;CENTRE-VAL DE LOIRE;AVENUE MARCEL MERIEUX;37261;Tours;140474;37;37701;Tours;366772;04-Unités urbaines de 100 000 hbts ou plus;13;2574;53;26338;608771;374886;62.3882993763437;De 450 à 700 000 entrées;CGR;NON;NON;;FIXE;OUI;C;237;202;201;33.1893429517588;50.8570947713012;12.3169526399245;3.63660963701554;44;3.39669900125235;47.365422;0.680755;47.365422, 0.680755
3;465920;SALLE DES FETES;HAUTS DE FRANCE;SALLE DES FETES;2517;Montigny-sur-Crécy;300;2;0;Zone rurale;14908533;04-Unités urbaines de 100 000 hbts ou plus;1;120;33;123;2981;1300;129.307692307692;De 2 à 5 000 entrées;;NON;NON;;ITINERANT;NON;R;50;34;1;72.8169528681038;22.4333211545488;4.56704420898794;0.182681768359518;16;39.8611618560468;49.714863;3.584145;49.714863, 3.584145
4;14102;CGR ALBI LAPEROUSE;OCCITANIE;60 RUE SERE DE RIVIERES;81004;Albi;50783;81;81502;Albi;77115;05-Unités urbaines de 20 000 à 100 000 hbts;3;467;53;4119;34282;19847;72.731395173074;De 30 à 40 000 entrées;CGR;OUI;D;RDJPPR;FIXE;NON;C;244;167;128;69.6899512074609;7.39608424433327;15.1256871101229;7.78827743808289;201;92.9003767525168;43.92676;2.149209;43.92676, 2.149209
4;14114;Cinéma SNA;OCCITANIE;P. DE L'AMITIE ENTRE LES PEUPLES;81004;Albi;50783;81;81502;Albi;77115;05-Unités urbaines de 20 000 à 100 000 hbts;1;142;46;800;21125;11173;89.0718696858498;De 20 à 30 000 entrées;;OUI;D;RDJPPR;FIXE;NON;C;219;116;4;67.8019898675456;6.73869254715254;17.9454312396997;7.51388634560215;181;84.8257339925533;43.923796;2.144604;43.923796, 2.144604
4;39131;LE REFUGE;OCCITANIE;LE REFUGE;65481;Barèges;162;65;0;Zone rurale;14908533;04-Unités urbaines de 100 000 hbts ou plus;1;136;43;127;2119;827;156.227327690447;De 2 à 5 000 entrées;;NON;NON;;FIXE;NON;R;97;87;16;71.4016045304389;23.8319962246343;2.4067956583294;2.35960358659745;27;14.9126946672959;42.8964384;0.0624745000000075;42.8964384, 0.06247450000000754
4;80991;SALLE POLYVALENTE;OCCITANIE;SALLE POLYVALENTE;46040;Cabrerets;233;46;0;Zone rurale;14908533;04-Unités urbaines de 100 000 hbts ou plus;1;150;52;380;9553;5064;88.6453396524487;De 5 à 10 000 entrées;;OUI;E;;ITINERANT;NON;R;147;71;0;72.8332371609925;13.4102712060012;4.81246393537219;8.94402769763416;87;67.1436814772072;44.530413;1.555391;44.530413, 1.555391
4;86031;CENTRE CULTUREL DE L ESTRAN;NOUVELLE AQUITAINE;123 AVENUE DE MAUBUISSON;33097;Carcans;2455;33;0;Zone rurale;14908533;04-Unités urbaines de 100 000 hbts ou plus;1;248;46;189;2735;3126;-12.5079974408189;De 2 à 5 000 entrées;;NON;NON;;FIXE;NON;R;95;91;4;32.7219369038885;53.1914893617021;8.73074101247249;5.3558327219369;20;6.56639765223771;45.069909;-1.142214;45.069909, -1.142214
4;90932;LES CAPUCINS;OCCITANIE;RUE DES CAPUCINS;31135;Cazères;4824;31;31203;Cazères;6072;06-autres communes et unités urbaines;1;237;50;513;7335;3812;92.4186778593914;De 5 à 10 000 entrées;;OUI;E;;FIXE;NON;C;343;283;1;59.4454600853138;19.4546008531383;11.9439366240098;9.15600243753809;195;47.0597196831201;43.203101;1.083573;43.203101, 1.083573
4;154813;JEAN GABIN;NOUVELLE AQUITAINE;AVENUE DE LA PAIX;87064;Eymoutiers;2107;87;0;Zone rurale;14908533;04-Unités urbaines de 100 000 hbts ou plus;1;135;53;446;6426;4530;41.8543046357616;De 5 à 10 000 entrées;;OUI;E;;FIXE;NON;R;260;210;0;60.8907672301691;17.0676202860858;14.4343302990897;7.6072821846554;188;57.8023407022107;45.738722;1.741383;45.738722, 1.741383
4;158201;LE ROC;PAYS DE LA LOIRE;71 RUE NATIONALE;85089;La Ferrière;5520;85;85129;La Ferrière;5520;06-autres communes et unités urbaines;1;153;45;404;8767;4101;113.777127529871;De 5 à 10 000 entrées;;OUI;E;;FIXE;NON;I;198;152;1;61.4322691975841;14.2857142857143;21.0649574756564;3.21705904104524;108;48.2558856156785;46.712066;-1.314796;46.712066, -1.314796
4;212871;LE LALANO;OCCITANIE;LE LALANO;65250;Lalanne-Trie;120;65;0;Zone rurale;14908533;04-Unités urbaines de 100 000 hbts ou plus;1;252;47;259;3504;2349;49.1698595146871;De 2 à 5 000 entrées;;OUI;E;;FIXE;NON;R;198;170;0;70.1316233547081;14.1410732365845;11.609854876814;4.11744853189335;99;40.4319946000675;43.310067;0.33742;43.310067, 0.33742
4;222841;CENTRE CULTUREL LEON;NOUVELLE AQUITAINE;PLACE DU DOCTEUR DUFAU;40150;Léon;1985;40;0;Zone rurale;14908533;04-Unités urbaines de 100 000 hbts ou plus;1;222;53;710;11300;7536;49.9469214437367;De 10 à 20 000 entrées;;OUI;E;;FIXE;NON;R;256;220;12;60.1753404215631;25.7880992352173;9.07479947770938;4.96176086551017;130;37.9220294721134;43.875113;-1.302436;43.875113, -1.302436
4;260340;CAMPING LE VIEUX PORT;NOUVELLE AQUITAINE;CAMPING LE VIEUX PORT;40181;Messanges;1019;40;0;Zone rurale;14908533;04-Unités urbaines de 100 000 hbts ou plus;1;250;7;30;2669;;;De 2 à 5 000 entrées;;NON;NON;;ITINERANT;NON;R;6;5;0;4.27126264518546;95.7287373548145;0;0;1;1.83589359310603;43.816722;-1.375306;43.816722, -1.375306
4;309443;LA LUTZ;NOUVELLE AQUITAINE;146 PLACE ARISTIDE BRIAND;40224;Peyrehorade;3821;40;40204;Peyrehorade;7969;06-autres communes et unités urbaines;1;199;53;818;18843;12423;51.6783385655639;De 10 à 20 000 entrées;;OUI;E;JPPR;FIXE;NON;C;294;222;16;47.6653013458163;38.519602106495;10.5266237565828;3.28847279110591;150;17.0157987126975;43.545174;-1.102823;43.545174, -1.102823
4;351333;CINEMA DE SAMATAN;OCCITANIE;PLACE DES CORDELIERS;32410;Samatan;2484;32;0;Zone rurale;14908533;04-Unités urbaines de 100 000 hbts ou plus;1;187;53;418;9992;5662;76.4747439067467;De 5 à 10 000 entrées;;OUI;E;JPPR;FIXE;NON;R;286;235;40;50.3255416800085;28.2207279325435;9.16853452876508;12.2851958586829;145;47.7745757284662;43.490681;0.929457;43.490681, 0.929457
4;385793;CINEMA LA BRECHE;NOUVELLE AQUITAINE;138 RUE DE LA REPUBLIQUE;33402;Sainte-Foy-la-Grande;2697;33;553;Bergerac;65896;05-Unités urbaines de 20 000 à 100 000 hbts;3;515;53;3586;49908;29173;71.0759949268159;De 40 à 50 000 entrées;;OUI;D;JP;FIXE;NON;B;327;255;118;52.4263628294838;32.1423411150329;9.73228476479452;5.69901129068879;190;25.4855821825913;44.842499;0.219805;44.842499, 0.219805
4;423865;CINE ROC;NOUVELLE AQUITAINE;16 AVENUE JEAN JAURES;24547;Terrasson-Lavilledieu;6370;24;265;Terrasson-Lavilledieu;8134;06-autres communes et unités urbaines;1;228;53;1195;17790;10788;64.9054505005562;De 10 à 20 000 entrées;;OUI;E;RDJPPR;FIXE;NON;C;356;271;4;59.4999689035388;26.6558865601095;8.80651781827228;5.03762671807948;212;40.2388208221904;45.131093;1.301938;45.131093, 1.301938
4;430455;BORDEROUGE CINE;OCCITANIE;59, AVENUE MAURICE BOURGES-MAUNOURY;31555;Toulouse;503020;31;31701;Toulouse;1024959;04-Unités urbaines de 100 000 hbts ou plus;3;299;53;4755;60811;31897;90.6480233250776;De 50 à 80 000 entrées;;OUI;A;RDJPPR;FIXE;NON;C;339;178;15;66.7518863737239;8.64092321349312;15.005770084332;9.60142032845095;279;83.5206391478029;43.642205;1.45598;43.642205, 1.45598
4;721602;STUDIO JULES FERRY;NOUVELLE AQUITAINE;12 RUE JULES FERRY;47001;Agen;33046;47;47501;Agen;82191;05-Unités urbaines de 20 000 à 100 000 hbts;2;288;51;2567;50477;30220;67.0317670416943;De 50 à 80 000 entrées;;OUI;D;RDJPPR;FIXE;NON;C;403;219;69;66.9163743351816;7.82165893402739;13.4117913319;11.850175398891;340;91.7211723435555;44.204672;0.62747;44.204672, 0.62747
4;722000;LA MUSE;OCCITANIE;ROUTE DE LAVAUR;82025;Bressols;3804;82;82501;Montauban;82406;05-Unités urbaines de 20 000 à 100 000 hbts;1;266;53;826;10195;5435;87.5804967801288;De 10 à 20 000 entrées;;OUI;D;JP;FIXE;NON;B;251;180;3;63.7896825396825;15.7490079365079;10.7762896825397;9.68501984126984;188;64.5213293650794;43.961546;1.342434;43.961546, 1.342434
5;364991;REX;HAUTS DE FRANCE;PLACE VERTE;59572;Solre-le-Château;1798;59;0;Zone rurale;14908533;04-Unités urbaines de 100 000 hbts ou plus;1;192;51;489;10204;8318;22.6737196441452;De 10 à 20 000 entrées;;NON;NON;;FIXE;NON;R;119;96;14;45.8489609731374;37.27318803852;13.1880385200203;3.68981246832235;25;19.6654840344653;50.174295;4.093165;50.174295, 4.093165
6;22231;PATHE;AUVERGNE-RHONE-ALPES;46 AVENUE MARIE CURIE;74016;Archamps;2657;74;652;Genève (SUI) - Annemasse (partie française);195045;04-Unités urbaines de 100 000 hbts ou plus;12;2648;53;19125;402961;223580;80.2312371410681;De 300 à 450 000 entrées;PATHE-GAUMONT;NON;NON;;FIXE;OUI;B;364;263;212;29.9492819981283;53.8591971662323;12.5713221901321;3.62019864550733;143;6.70780795588339;46.1393558;6.12469740000006;46.1393558, 6.124697400000059
6;32771;L EMPIRE;BOURGOGNE-FRANCHE-COMTE;JARDIN DE L HOTEL DE VILLE;21038;Auxonne;7709;21;21206;Auxonne;7709;06-autres communes et unités urbaines;1;192;45;821;15485;6812;127.319436288902;De 10 à 20 000 entrées;;OUI;E;;FIXE;NON;I;184;148;5;47.5822303760975;37.4852575022933;12.2067881011663;2.72572402044293;78;22.2644476477526;47.193943;5.404892;47.193943, 5.404892
6;52162;ESPACE PLANOISE;BOURGOGNE-FRANCHE-COMTE;PLACE DE L' EUROPE;25056;Besançon;121519;25;25602;Besançon;140997;04-Unités urbaines de 100 000 hbts ou plus;1;426;43;356;20723;8027;158.166189111748;De 20 à 30 000 entrées;;OUI;B;PR;FIXE;NON;C;107;20;0;43.1896222815719;26.7645936665395;20.3421086099453;9.70367544194328;102;97.50731273051;47.21818;5.973484;47.21818, 5.973484
6;68423;KINEPOLIS;AUVERGNE-RHONE-ALPES;RUE THEOPHILE DIEDERICHS;38053;Bourgoin-Jallieu;30011;38;38501;Bourgoin-Jallieu;62489;05-Unités urbaines de 20 000 à 100 000 hbts;12;2010;53;19158;355120;214843;65.2927952039396;De 300 à 450 000 entrées;KINEPOLIS;OUI;D;;FIXE;OUI;C;387;281;216;32.6796550078407;51.6366105315788;11.6062703120384;4.07746414854208;173;7.62511079293652;45.590599;5.277321;45.590599, 5.277321
6;102284;LES HALLES;AUVERGNE-RHONE-ALPES;PLACE ST PHILIBERT;42052;Charlieu;3810;42;42204;Charlieu;9670;06-autres communes et unités urbaines;2;210;53;1727;23768;14785;60.7575245180927;De 20 à 30 000 entrées;;OUI;E;RDJPPR;FIXE;NON;C;308;216;28;62.1944055312034;20.0551312757016;12.0430204708753;5.70744272221971;198;41.4795065298929;46.158309;4.170764;46.158309, 4.170764
6;114062;L'ODYSSEE;BOURGOGNE-FRANCHE-COMTE;RUE FAISANT;71133;La Clayette;1699;71;71110;La Clayette;2878;06-autres communes et unités urbaines;1;193;53;542;7914;4765;66.0860440713536;De 5 à 10 000 entrées;;OUI;E;JP;FIXE;NON;C;211;175;2;70.1995685005394;16.8015102481122;10.5987055016181;2.40021574973031;94;31.2162891046386;46.290173;4.304916;46.290173, 4.304916
6;114727;CGR CLERMONT FERRAND VAL ARENA;AUVERGNE-RHONE-ALPES;210 Boulevard Etienne Clementel;63113;Clermont-Ferrand;149898;63;63701;Clermont-Ferrand;278692;04-Unités urbaines de 100 000 hbts ou plus;12;2218;53;23689;234163;147887;58.3391373143008;De 200 à 300 000 entrées;CGR;NON;NON;;FIXE;OUI;C;217;177;176;31.5737543167242;52.0666652366959;12.3763969026833;3.98318354389653;31;2.81160850260612;45.807582;3.109175;45.807582, 3.109175
6;121951;EDEN CINEMA;BOURGOGNE-FRANCHE-COMTE;2 RUE SAINT AGNAN;58086;Cosne-Cours-sur-Loire;9658;58;58301;Cosne-Cours-sur-Loire;10733;06-autres communes et unités urbaines;2;320;53;1823;44675;28257;58.1024171001876;De 40 à 50 000 entrées;;OUI;E;;FIXE;NON;C;233;176;35;45.384301640533;39.7602646605638;11.8598749206925;2.99555877821082;92;11.5449107223783;47.409738;2.924065;47.409738, 2.924065
6;136773;CINEAL;BOURGOGNE-FRANCHE-COMTE;6 RUE DU PORT;58095;Decize;5375;58;58201;Decize;7213;06-autres communes et unités urbaines;2;345;53;1504;18028;12701;41.9415794031966;De 10 à 20 000 entrées;;OUI;E;;FIXE;NON;C;175;145;5;45.15367758611;40.630443333146;10.0803506208912;4.13552845985278;54;13.3337079283025;46.831224;3.459781;46.831224, 3.459781
6;138741;ELDORADO;BOURGOGNE-FRANCHE-COMTE;21 RUE ALFRED DE MUSSET;21231;Dijon;162454;21;21701;Dijon;253465;04-Unités urbaines de 100 000 hbts ou plus;3;403;53;5858;80932;51692;56.5658128917434;De 80 à 100 000 entrées;;OUI;A;RDJPPR;FIXE;NON;C;329;192;165;66.0487392962225;10.691243023578;11.807470543996;11.4525471362035;292;95.487590874906;47.314412;5.048804;47.314412, 5.048804
6;157971;VOLTAIRE;AUVERGNE-RHONE-ALPES;LA POTERIE;1160;Ferney-Voltaire;10784;1;652;Genève (SUI) - Annemasse (partie française);195045;04-Unités urbaines de 100 000 hbts ou plus;3;435;53;3600;63204;28909;118.630876197724;De 50 à 80 000 entrées;;OUI;C;JP;FIXE;NON;B;197;164;110;37.1643583380034;41.4954767432551;15.0988711872548;6.24129373148667;82;14.9819870306621;46.253781;6.118753;46.253781, 6.118753
6;238886;PATHE VAISE;AUVERGNE-RHONE-ALPES;43 RUE DES DOCKS;69123;Lyon;528633;69;758;Lyon;1720030;04-Unités urbaines de 100 000 hbts ou plus;14;2528;53;22068;491329;330017;48.879906186651;De 450 à 700 000 entrées;PATHE-GAUMONT;NON;NON;;FIXE;OUI;C;363;263;216;35.3528501211833;47.6319397762991;13.1788682565428;3.83634184597484;127;7.57421580296555;45.787335;4.812112;45.787335, 4.812112
7;251251;TRIANON;OCCITANIE;4 RUE PAUL MENDRAS;48092;Marvejols;4956;48;48201;Marvejols;6201;06-autres communes et unités urbaines;1;177;39;918;15095;6705;125.130499627144;De 10 à 20 000 entrées;;OUI;E;;FIXE;NON;C;189;160;12;49.2693582404339;32.9617354624887;14.0855679421513;3.68333835492618;106;37.0744200060259;44.551614;3.291609;44.551614, 3.291609
7;290044;PATHE MASSENA;PROVENCE-ALPES-COTE D'AZUR;31 AVENUE JEAN MEDECIN;6088;Nice;346376;6;6701;Nice;966577;04-Unités urbaines de 100 000 hbts ou plus;7;1366;53;12324;176341;112274;57.0630778274578;De 150 à 200 000 entrées;PATHE-GAUMONT;NON;NON;;FIXE;NON;C;296;216;159;60.1063030793229;22.2537408284707;12.1416604078803;5.49829568432607;161;53.9239701889191;43.702059;7.266941;43.702059, 7.266941
7;721200;CAPITOLE STUDIO;PROVENCE-ALPES-COTE D'AZUR;AVENUE DE SAINT TRONQUET;84092;Le Pontet;17146;84;754;Avignon;470065;04-Unités urbaines de 100 000 hbts ou plus;11;2236;53;18030;504557;286265;76.2552180671755;De 450 à 700 000 entrées;AUBERT;NON;NON;;FIXE;OUI;B;247;195;188;28.8725824642504;54.3300320448429;13.2121822120291;3.58520327887766;39;3.07101383835953;43.980769;4.874683;43.980769, 4.874683
9;57451;BON ACCUEIL;GRAND EST;RUE DES CAPUCINS;54077;Blâmont;1065;54;0;Zone rurale;14908533;04-Unités urbaines de 100 000 hbts ou plus;1;274;46;105;3303;2195;50.4783599088838;De 2 à 5 000 entrées;;NON;NON;;FIXE;NON;R;89;73;0;65;23.7345679012346;9.10493827160494;2.16049382716049;13;19.783950617284;48.589226;6.84543;48.589226, 6.84543
9;318661;CONCORDE;GRAND EST;48, PLACE DUROC;54431;Pont-à-Mousson;14550;54;54404;Pont-à-Mousson;24101;05-Unités urbaines de 20 000 à 100 000 hbts;2;283;53;3893;45674;32594;40.1300852917715;De 40 à 50 000 entrées;;OUI;D;JPPR;FIXE;NON;C;306;208;121;47.7784499563084;35.2893728574309;12.1148977168336;4.81727946942708;140;17.6402052385113;48.902416;6.055412;48.902416, 6.055412
9;460135;RIO;GRAND EST;6 RUE GEORGES CLEMENCEAU;54580;Villerupt;10206;54;366;Esch-sur-Alzette (LUX) - Villerupt (partie française);21670;05-Unités urbaines de 20 000 à 100 000 hbts;1;127;8;89;8156;5195;56.9971126082772;De 5 à 10 000 entrées;;NON;NON;;FIXE;NON;C;35;14;1;73.3938205002452;7.14811181951937;19.4580676802354;0;20;47.6459048553212;49.469111;5.928509;49.469111, 5.928509
7;722240;MUCEM;PROVENCE-ALPES-COTE D'AZUR;7 PROMENADE ROBERT LAFFONT;13055;Marseille;876602;13;759;Marseille - Aix-en-Provence;1630325;04-Unités urbaines de 100 000 hbts ou plus;1;263;12;13;299;174;71.8390804597701;Moins de 2000 entrées;;NON;NON;;FIXE;NON;C;12;0;0;29.8561151079137;56.1151079136691;8.27338129496403;5.75539568345324;5;43.5251798561151;43.297725;5.360374;43.297725, 5.360374
8;282583;STUDIO BEL AIR;GRAND EST;31 RUE FENELON;68224;Mulhouse;109285;68;68701;Mulhouse;249916;04-Unités urbaines de 100 000 hbts ou plus;1;126;50;1573;29251;14267;105.025583514404;De 20 à 30 000 entrées;;OUI;A;RDJPPR;FIXE;NON;C;228;114;53;47.7252172545319;11.1596083520113;23.87243914907;17.2427352443868;181;79.568243482364;47.733763;7.30706;47.733763, 7.30706
8;369781;STAR SAINT EXUPERY;GRAND EST;18, RUE DU 22 NOVEMBRE;67482;Strasbourg;293538;67;67701;Strasbourg (partie française);489338;04-Unités urbaines de 100 000 hbts ou plus;5;691;53;9186;160961;97550;65.0035879036392;De 150 à 200 000 entrées;;OUI;A;RDJPPR;FIXE;NON;C;428;216;120;57.1022835818995;13.9727702281035;18.777462205637;10.1474839843601;285;73.3898391431155;48.582805;7.74237;48.582805, 7.74237
8;395671;KINEPOLIS;GRAND EST;10 AV PAUL LANGEVIN;57616;Saint-Julien-lès-Metz;3531;57;57701;Metz;294649;04-Unités urbaines de 100 000 hbts ou plus;14;4058;53;22153;471045;305720;54.0772602381264;De 450 à 700 000 entrées;KINEPOLIS;NON;NON;;FIXE;OUI;B;327;238;236;30.8837769284821;50.8001422475107;13.8691322901849;4.44694853382234;71;5.0607122658486;49.133075;6.200124;49.133075, 6.200124
8;446302;LE DIAPASON;GRAND EST;14 RUE JEAN HOLWEG;67506;Vendenheim;6080;67;67701;Strasbourg (partie française);489338;04-Unités urbaines de 100 000 hbts ou plus;1;121;31;107;3174;1599;98.4990619136961;De 2 à 5 000 entrées;;NON;NON;;FIXE;NON;B;41;23;0;56.9084943492527;9.58804228946409;22.5665329930733;10.93693036821;21;52.9711994166971;48.666901;7.711243;48.666901, 7.711243
9;58272;CINE VILAR;GRAND EST;RUE ST EPVRE;54079;Blénod-lès-Pont-à-Mousson;4669;54;54404;Pont-à-Mousson;24101;05-Unités urbaines de 20 000 à 100 000 hbts;1;218;32;230;3075;1832;67.849344978166;De 2 à 5 000 entrées;;OUI;D;;FIXE;NON;B;90;77;4;75.3542292829541;9.27436668097896;12.4516960068699;2.91970802919708;38;49.4632889652211;48.883026;6.051403;48.883026, 6.051403
9;72881;SALLE GRAND ECRAN;GRAND EST;4, RUE DU SOUVENIR;88075;La Bresse;4289;88;88402;La Bresse;24255;05-Unités urbaines de 20 000 à 100 000 hbts;1;217;53;441;5633;3618;55.6937534549475;De 5 à 10 000 entrées;;OUI;D;;FIXE;NON;C;140;115;0;79.8587247040855;10.9774723176785;6.33829705994654;2.82550591828942;71;42.7835051546392;48.004696;6.873744;48.004696, 6.873744
9;382412;EMPIRE;GRAND EST;22 QUAI CARNOT;88413;Saint-Dié-des-Vosges;19936;88;88403;Saint-Dié-des-Vosges;41650;05-Unités urbaines de 20 000 à 100 000 hbts;4;900;53;4334;47333;33857;39.8026995894498;De 40 à 50 000 entrées;;OUI;D;;FIXE;NON;C;190;159;117;39.9902208805459;45.2241756840069;11.2396096855801;3.54599374986713;58;7.58519526350475;48.284403;6.952124;48.284403, 6.952124
2;110351;GAUMONT DISNEY VILLAGE;ILE-DE-FRANCE;1 ESPLANADE FRANCOIS TRUFFAUT;77111;Chessy;6780;77;851;Paris;10949158;03-Grande couronne;15;3923;53;25441;637758;418659;52.3335220310563;De 450 à 700 000 entrées;PATHE-GAUMONT;NON;NON;;FIXE;OUI;B;260;194;186;17.283306429238;64.9819027921406;13.8610739778546;3.87371680076677;46;1.97540166973541;48.880488;2.772675;48.880488, 2.772675
2;142171;PARTERRE;ILE-DE-FRANCE;SQUARE DE LAC MEGANTIC;91200;Dourdan;10910;91;91302;Dourdan;12248;03-Grande couronne;2;227;52;2256;31765;20721;53.2985859755803;De 30 à 40 000 entrées;;OUI;E;JP;FIXE;NON;C;253;182;58;48.7981785656204;35.5179704016913;12.3890063424947;3.29484469019353;124;23.1907627256464;48.528741;2.015215;48.528741, 2.015215
2;276086;MELIES;ILE-DE-FRANCE;PLACE JEAN JAURES;93048;Montreuil;111954;93;851;Paris;10949158;02-Petite Couronne;6;1139;53;10093;318096;189927;67.4832962138085;De 300 à 450 000 entrées;;OUI;C;RDJPPR;FIXE;NON;B;705;369;308;57.3124653355519;20.6503050471437;11.857667775929;10.1795618413755;512;73.5659317803661;48.862437;2.442502;48.862437, 2.442502
2;347162;ARIEL;ILE-DE-FRANCE;99 AVENUE PAUL DOUMER;92063;Rueil-Malmaison;79713;92;851;Paris;10949158;02-Petite Couronne;3;689;51;4118;82316;46739;76.1184449817069;De 80 à 100 000 entrées;;OUI;C;;FIXE;NON;B;178;117;69;75.2037252619325;9.68221336041414;9.47291506700022;5.64114631065316;107;44.514898570827;48.879844;2.180852;48.879844, 2.180852
3;40303;un cinéma qui VAGABONDe;GRAND EST;RUE JEAN BOUIN;10401;Vendeuvre-sur-Barse;2358;10;10101;Vendeuvre-sur-Barse;2358;06-autres communes et unités urbaines;1;200;26;153;2254;;;De 2 à 5 000 entrées;;NON;NON;;ITINERANT;NON;I;58;36;0;44.4035733053074;4.30898581187599;50.55176037835;0.735680504466632;32;75.249605885444;48.232222;4.468987;48.232222, 4.468987
3;103201;CINE ESPERANCE;BRETAGNE;3 RUE DE LA CONTERIE;35066;Chartres-de-Bretagne;8327;35;35701;Rennes;351058;04-Unités urbaines de 100 000 hbts ou plus;1;249;47;407;17974;10852;65.6284555842241;De 10 à 20 000 entrées;;OUI;C;;FIXE;NON;B;199;170;6;79.1607598525659;10.6095832151971;6.96342500708818;3.26623192514885;96;44.6952083924015;48.040732;-1.692346;48.040732, -1.692346
3;142371;LE FOYER;NORMANDIE;RUE DU CHEMIN DU BORD;14228;Douvres-la-Délivrande;5278;14;14302;Douvres-la-Délivrande - Luc-sur-Mer;15136;06-autres communes et unités urbaines;1;260;53;971;27702;16455;68.3500455788514;De 20 à 30 000 entrées;;OUI;E;JPPR;FIXE;NON;C;233;185;17;65.4655712050078;20.6611893583725;10.9546165884194;2.91862284820031;130;36.2676056338028;49.295699;-0.380152;49.295699, -0.380152
3;196901;SONHIR;HAUTS DE FRANCE;80 RUE CHARLES DE GAULLE;2381;Hirson;8874;2;2302;Hirson;9747;06-autres communes et unités urbaines;3;436;53;3155;45774;33530;36.516552341187;De 40 à 50 000 entrées;;OUI;E;;FIXE;NON;C;286;212;112;36.3203367301728;47.6739034116083;12.7093486929552;3.29641116526362;111;7.41914045192734;49.920188;4.084108;49.920188, 4.084108
3;201253;LE VULCAIN;BRETAGNE;10 RUE LEON BLUM;56090;Inzinzac-Lochrist;6669;56;56205;Inzinzac-Lochrist;6669;06-autres communes et unités urbaines;1;180;50;662;20993;11488;82.7385097493036;De 20 à 30 000 entrées;;OUI;E;JPPR;FIXE;NON;I;219;147;13;71.0134821013482;12.1455137145514;9.01324965132497;7.82775453277545;124;50.4067875406788;47.827604;-3.253047;47.827604, -3.253047
3;252991;L AURORE;BRETAGNE;5 RUE DU FRERE CYPRIEN;35168;Val d'Anast;4025;35;0;Zone rurale;14908533;04-Unités urbaines de 100 000 hbts ou plus;1;173;50;282;5583;3525;58.3829787234043;De 5 à 10 000 entrées;;OUI;E;;FIXE;NON;R;188;153;0;63.5496183206107;24.2748091603053;9.69465648854962;2.48091603053435;63;23.5687022900763;47.891029;-1.991909;47.891029, -1.991909
3;277893;SALLE DES FETES;HAUTS DE FRANCE;SALLE DES FETES;80570;Moreuil;4022;80;80117;Moreuil;4518;06-autres communes et unités urbaines;1;300;37;156;4115;811;407.398273736128;De 2 à 5 000 entrées;;OUI;E;;ITINERANT;NON;C;74;43;0;62.8635346756152;17.7479492915735;18.5185185185185;0.869997514292816;42;61.6206810837683;49.780148;2.47974;49.780148, 2.47974
3;287391;LE VIKING;NORMANDIE;68 RUE DE LA REPUBLIQUE;27428;Le Neubourg;4478;27;27201;Le Neubourg;5670;06-autres communes et unités urbaines;2;502;51;1753;35529;19408;83.0636850783182;De 30 à 40 000 entrées;;NON;NON;;FIXE;NON;C;132;107;58;53.9560407653669;33.8375773061177;9.72677912952586;2.47960279898958;39;8.12694172643071;49.148993;0.902155;49.148993, 0.902155
3;320411;CINEMA LE CONCORDE;NORMANDIE;PLACE ROBERT DE FLERS;14514;Pont-l'Évêque;4862;14;14120;Pont-l'Évêque;5337;06-autres communes et unités urbaines;1;169;49;964;20216;11421;77.0072673145959;De 20 à 30 000 entrées;;OUI;E;;FIXE;NON;C;195;161;11;62.5928186349303;25.5569118095819;7.36445936323873;4.48581019224901;92;31.0192249008239;49.285635;0.185399;49.285635, 0.185399
3;337051;MAJESTIC;CENTRE-VAL DE LOIRE;26 RUE HENRI PROUST;37196;Richelieu;1671;37;37101;Richelieu;2228;06-autres communes et unités urbaines;1;246;48;701;10207;7173;42.2975045308797;De 10 à 20 000 entrées;;OUI;E;JP;FIXE;NON;C;169;135;2;63.6448988107657;20.6029626538702;10.3379929063217;5.41414562904235;77;33.0064677654913;47.014742;0.322461;47.014742, 0.322461
3;343321;STE BARBE;BRETAGNE;14 BIS RUE YANN D ARGENT;29239;Roscoff;3446;29;29305;Saint-Pol-de-Léon;12892;06-autres communes et unités urbaines;1;200;51;405;7592;4760;59.4957983193277;De 5 à 10 000 entrées;;OUI;E;;FIXE;NON;B;172;150;22;64.1791044776119;24.5992260917634;7.75290215588723;3.46876727473742;84;30.1271420674406;48.724745;-3.984009;48.724745, -3.984009
3;408122;VOX;HAUTS DE FRANCE;RUE AMBROISE CROIZAT;80711;Saint-Ouen;1802;80;80206;Saint-Léger-lès-Domart;7134;06-autres communes et unités urbaines;1;176;45;232;7538;2857;163.843192159608;De 5 à 10 000 entrées;;NON;NON;;FIXE;NON;C;104;85;1;58.6585881358321;25.531914893617;14.2313653656475;1.57813160490348;18;26.2646188530365;50.038633;2.123723;50.038633, 2.123723
3;412251;MAJESTIC;BRETAGNE;PLACE DU KREISKER;29259;Saint-Pol-de-Léon;6985;29;29305;Saint-Pol-de-Léon;12892;06-autres communes et unités urbaines;1;331;53;589;21131;12220;72.9214402618658;De 20 à 30 000 entrées;;OUI;E;;FIXE;NON;C;238;201;26;59.8014527845036;27.046004842615;8.49394673123487;4.65859564164649;112;29.1525423728814;48.687279;-3.992419;48.687279, -3.992419
3;724600;CINEVILLE;BRETAGNE;3 RUE CHARLES VANEL;35352;Vern-sur-Seiche;8442;35;35216;Vern-sur-Seiche;8442;06-autres communes et unités urbaines;6;1244;53;8991;188561;109599;72.0462777945054;De 150 à 200 000 entrées;CINEVILLE;NON;NON;;FIXE;NON;I;155;121;95;36.0982726672488;51.779514813316;10.0237481629784;2.09846435645673;25;1.66503375859939;48.065518;-1.626459;48.065518, -1.626459
4;38592;SALLE COMMUNALE;NOUVELLE AQUITAINE;SALLE COMMUNALE;47021;Barbaste;1571;47;47301;Nérac;12276;06-autres communes et unités urbaines;1;90;48;68;2484;836;197.129186602871;De 2 à 5 000 entrées;;NON;NON;;ITINERANT;NON;B;60;45;0;71.0198431010614;22.5657591139825;5.81449007844947;0.599907706506691;11;22.1504383940932;44.169886;0.285632;44.169886, 0.285632
4;81311;SALLE LUX;NOUVELLE AQUITAINE;PLACE DU CHATEAU;33081;Cadillac;2877;33;33121;Cadillac;5219;06-autres communes et unités urbaines;2;286;53;2491;32555;21889;48.7276714331399;De 30 à 40 000 entrées;;OUI;E;RDJP;FIXE;NON;C;240;166;47;65.8469492592715;16.8428727670434;10.638650449077;6.67152752460809;170;58.9268551353859;44.636357;-0.320145;44.636357, -0.320145
4;172104;IMAG'IN CINEMA L'OLYMPIA;OCCITANIE;RUE JOSEPH RIGAL;81099;Gaillac;15572;81;81303;Gaillac;19162;06-autres communes et unités urbaines;4;709;53;6313;146885;83394;76.1337746120824;De 100 à 150 000 entrées;;OUI;E;RDJP;FIXE;NON;C;341;244;160;47.0874578676601;35.9120099343622;12.9920170303353;4.00851516764236;201;32.2888061025368;43.901202;1.895449;43.901202, 1.895449
4;177663;CINEMA DE LA COMMUNAUTE DE COMMUNE;OCCITANIE;53 BOULEVARD DU NORD;32147;Gimont;3078;32;32101;Gimont;3078;06-autres communes et unités urbaines;1;97;49;236;5124;3003;70.6293706293706;De 5 à 10 000 entrées;;OUI;E;JP;FIXE;NON;I;168;136;15;52.4716369529984;30.5510534846029;5.00405186385737;11.9732576985413;69;47.6904376012966;43.626338;0.878691;43.626338, 0.878691
4;189830;L'ENTREPOT DES JALLES;NOUVELLE AQUITAINE;13 RUE GEORGES CLEMENCEAU;33200;Le Haillan;11756;33;33701;Bordeaux;975671;04-Unités urbaines de 100 000 hbts ou plus;1;480;44;288;4653;2688;73.1026785714286;De 2 à 5 000 entrées;;OUI;C;;FIXE;NON;B;170;142;3;52.2528581035642;21.1499663752522;17.4176193678547;9.17955615332885;68;30.665770006725;44.874611;-0.677018;44.874611, -0.677018
4;215621;GRAND ECRAN LANGON CENTRE-VILLE;NOUVELLE AQUITAINE;16 ALLEE JEAN JAURES;33227;Langon;7516;33;33303;Langon;14120;06-autres communes et unités urbaines;2;465;45;860;6823;2335;192.20556745182;De 5 à 10 000 entrées;GRAND ECRAN;NON;NON;;FIXE;NON;C;110;89;16;79.9024836202956;7.02422672558281;10.5287216212098;2.54456803291178;74;53.9082736553405;44.553056;-0.245112;44.553056, -0.245112
4;283105;VEO - GRAND - MERMOZ;OCCITANIE;AVENUE JACQUES DOUZANS;31395;Muret;25336;31;31701;Toulouse;1024959;04-Unités urbaines de 100 000 hbts ou plus;8;1041;53;13211;366522;215003;70.4729701446026;De 300 à 450 000 entrées;;OUI;C;JPPR;FIXE;OUI;B;470;270;197;36.7567431364754;47.5326027918853;11.1067870921501;4.60386697948922;247;12.10712865854;43.465865;1.326927;43.465865, 1.326927
4;307135;CGR PERIGUEUX;NOUVELLE AQUITAINE;PLACE FRANCHEVILLE;24322;Périgueux;30823;24;24501;Périgueux;76927;05-Unités urbaines de 20 000 à 100 000 hbts;10;1802;53;19679;260494;159508;63.310931113173;De 200 à 300 000 entrées;CGR;OUI;D;RDJPPR;FIXE;OUI;C;503;369;196;38.349512640455;45.6272303481819;11.9247632513872;4.09849375997592;316;17.3354245632379;45.182579;0.718006;45.182579, 0.718006
4;339664;APOLLO CINE;NOUVELLE AQUITAINE;COURS ROY-BRY;17299;Rochefort;24042;17;17403;Rochefort;39086;05-Unités urbaines de 20 000 à 100 000 hbts;8;1310;53;11631;190154;116668;62.9872801453698;De 150 à 200 000 entrées;;OUI;D;;FIXE;OUI;C;283;221;174;41.7813105607258;42.7162084460251;11.1602104052644;4.34227058798475;115;14.1118470089657;45.93763;-0.966174;45.93763, -0.966174
4;370483;LE PALACE;NOUVELLE AQUITAINE;RUE DES TROIS  FRERES NADEAU;17434;Surgères;6970;17;17203;Surgères;6970;06-autres communes et unités urbaines;1;210;53;1419;27521;15946;72.5887369873322;De 20 à 30 000 entrées;;OUI;E;JP;FIXE;NON;I;315;273;78;56.0951399228802;26.5070820448211;10.2851906998053;7.11258733249341;167;29.7827663879663;46.108206;-0.750249;46.108206, -0.750249
4;398526;L'UTOPIE;NOUVELLE AQUITAINE;18 RUE NATIONALE;47252;Sainte-Livrade-sur-Lot;6660;47;47401;Villeneuve-sur-Lot;49674;05-Unités urbaines de 20 000 à 100 000 hbts;1;119;52;813;16371;9453;73.1831164709616;De 10 à 20 000 entrées;;OUI;D;JP;FIXE;NON;B;195;132;2;62.1016610821986;26.4917658800884;8.3695729664219;3.03700007129108;104;51.7787124830684;44.398567;0.590542;44.398567, 0.590542
4;426463;LE CLAIR;NOUVELLE AQUITAINE;4 AVENUE DU GENERAL LECLERC;24551;Thiviers;3060;24;24108;Thiviers;4057;06-autres communes et unités urbaines;1;173;53;910;16339;9488;72.2069983136594;De 10 à 20 000 entrées;;OUI;E;JPPR;FIXE;NON;C;299;215;3;60.5654270427373;25.9924697800383;8.23700376510998;5.20509941211441;170;39.659158464892;45.413265;0.918749;45.413265, 0.918749
4;438291;LE CARNOT;NOUVELLE AQUITAINE;66 BIS AV CARNOT;19275;Ussel;9530;19;19301;Ussel;9530;06-autres communes et unités urbaines;2;491;53;1882;26593;16822;58.0846510521936;De 20 à 30 000 entrées;;OUI;E;JP;FIXE;NON;I;267;215;23;49.293397189291;35.7619533642145;11.8277459370338;3.11690350946063;130;16.2871947868415;45.550069;2.312425;45.550069, 2.312425
4;718210;LE CONCORDE;PAYS DE LA LOIRE;8 RUE GOUVION;85191;La Roche-sur-Yon;58168;85;85501;La Roche-sur-Yon;58168;05-Unités urbaines de 20 000 à 100 000 hbts;2;294;53;3572;67679;35935;88.337275636566;De 50 à 80 000 entrées;;OUI;D;RDJPPR;FIXE;NON;I;358;192;112;69.9490206600483;13.7612651714831;9.10210072759987;7.1876134408687;283;85.9372780504743;46.673549;-1.425858;46.673549, -1.425858
5;125322;LE TRAVELLING;HAUTS DE FRANCE;RUE ARISTIDE BRIAND;62250;Courrières;10455;62;756;Douai - Lens;510310;04-Unités urbaines de 100 000 hbts ou plus;1;292;48;528;15368;6448;138.33746898263;De 10 à 20 000 entrées;;NON;NON;;FIXE;NON;B;134;115;0;52.5292419869361;26.7583168768039;11.9474403767279;8.76500075953213;24;25.0189883032052;50.453829;2.940575;50.453829, 2.940575
5;141823;JEAN RENOIR;HAUTS DE FRANCE;PLACE PAUL ELUARD;59179;Douchy-les-Mines;10179;59;59701;Valenciennes (partie française);336069;04-Unités urbaines de 100 000 hbts ou plus;1;166;49;721;14646;8693;68.480386517888;De 10 à 20 000 entrées;;OUI;C;;FIXE;NON;B;244;185;3;61.0972741109727;18.7491351874914;15.2483741524837;4.90521654905217;124;36.2114293621143;50.300211;3.390251;50.300211, 3.390251
5;344352;LE DUPLEXE;HAUTS DE FRANCE;47 GRAND' RUE;59512;Roubaix;98480;59;59702;Lille (partie française);1062604;04-Unités urbaines de 100 000 hbts ou plus;9;1590;53;13154;108101;71675;50.8210673177538;De 100 à 150 000 entrées;UGC;NON;NON;;FIXE;OUI;B;176;139;134;34.796579911679;48.6423001033543;10.6295217513859;5.93159823358076;40;9.99342290707507;50.691883;3.165548;50.691883, 3.165548
6;95052;ESPACE DES ARTS;BOURGOGNE-FRANCHE-COMTE;5 BIS AV NICEPHORE NIEPCE;71076;Chalon-sur-Saône;46567;71;71501;Chalon-sur-Saône;77070;05-Unités urbaines de 20 000 à 100 000 hbts;2;1134;10;113;9929;3006;230.306054557552;De 5 à 10 000 entrées;;NON;NON;;FIXE;NON;C;34;17;2;48.4799766150248;4.44314527915814;36.7436422098802;10.3332358959369;25;65.287927506577;46.779485;4.849123;46.779485, 4.849123
6;106181;SELECT;BOURGOGNE-FRANCHE-COMTE;46 RUE DU MARECHAL;21154;Châtillon-sur-Seine;5690;21;21203;Châtillon-sur-Seine;5690;06-autres communes et unités urbaines;2;197;52;896;13366;7436;79.7471759010221;De 10 à 20 000 entrées;;OUI;E;JP;FIXE;NON;I;203;164;11;61.7980179329873;24.366839704263;10.2092181846783;3.62592417807142;94;26.2938492999843;47.858822;4.57312;47.858822, 4.57312
6;113611;CASINO;BOURGOGNE-FRANCHE-COMTE;41 ROUTE DE PRESSURES;58079;Clamecy;3779;58;58107;Clamecy;4067;06-autres communes et unités urbaines;2;243;53;1791;19029;12453;52.8065526379186;De 10 à 20 000 entrées;;OUI;E;JP;FIXE;NON;C;280;216;36;49.6672978090344;33.026778469029;13.616445766838;3.68947795509873;146;26.091425480119;47.458201;3.515322;47.458201, 3.515322
6;115562;STUDIO 1600;AUVERGNE-RHONE-ALPES;FLAINE-FORUM;74081;Cluses;17372;74;74502;Cluses;93895;05-Unités urbaines de 20 000 à 100 000 hbts;1;256;26;256;4892;2287;113.904678618277;De 2 à 5 000 entrées;;NON;NON;;FIXE;NON;C;85;69;44;46.0715754833402;42.4928013163307;10.4895104895105;0.946112710818593;16;6.9724393253805;46.050618;6.587273;46.050618, 6.587273
6;159364;CINE FEURS;AUVERGNE-RHONE-ALPES;1 PLACE CHARLES DE GAULLE;42094;Feurs;8488;42;42203;Feurs;9956;06-autres communes et unités urbaines;2;283;53;1796;46741;29991;55.8500883598413;De 40 à 50 000 entrées;;OUI;E;JP;FIXE;NON;C;269;203;54;51.7879486335199;34.3826144221271;10.4357370211832;3.39369992316979;144;20.087805948853;45.750204;4.225091;45.750204, 4.225091
6;237821;VOX;BOURGOGNE-FRANCHE-COMTE;9 RUE DES REMPARTS;58149;Luzy;2033;58;0;Zone rurale;14908533;04-Unités urbaines de 100 000 hbts ou plus;1;178;52;405;3100;2168;42.9889298892989;De 2 à 5 000 entrées;;OUI;E;;FIXE;NON;R;187;150;4;66.5993265993266;12.4915824915825;14.983164983165;5.92592592592593;111;43.7710437710438;46.790178;3.969574;46.790178, 3.969574
6;277851;LE DAUPHIN;AUVERGNE-RHONE-ALPES;PLACE ANTOINE CHANOZ;38261;Morestel;4606;38;38302;Morestel;17097;06-autres communes et unités urbaines;1;161;53;749;19682;10881;80.884109916368;De 10 à 20 000 entrées;;OUI;E;JP;FIXE;NON;C;176;143;6;46.140350877193;38.5273790536948;10.8984582668793;4.43381180223286;72;31.6905901116427;45.676633;5.469622;45.676633, 5.469622
6;339013;LE GRAND PALAIS;AUVERGNE-RHONE-ALPES;3 COURS DE LA REPUBLIQUE;42187;Roanne;35152;42;42502;Roanne;82222;05-Unités urbaines de 20 000 à 100 000 hbts;9;1919;53;12224;236976;151766;56.1456452696915;De 200 à 300 000 entrées;;NON;NON;;FIXE;OUI;C;214;187;179;40.058074811532;46.4691615131621;10.2325108890272;3.24025278627877;44;4.75815565911948;46.037107;4.06479;46.037107, 4.06479
6;383599;VEO GRAND LUMIERE;AUVERGNE-RHONE-ALPES;RUE DE SAINT ETIENNE;42207;Saint-Chamond;35697;42;753;Saint-Étienne;380055;04-Unités urbaines de 100 000 hbts ou plus;6;950;53;8478;158880;94644;67.8711804234817;De 150 à 200 000 entrées;;OUI;C;JPPR;FIXE;NON;B;378;246;150;43.8756159859646;41.3852266570345;10.0576640264197;4.68149333058129;181;13.3111019376145;45.472045;4.505391;45.472045, 4.505391
6;392710;LES AIGUILLES;AUVERGNE-RHONE-ALPES;LACHAL;73242;Saint-Jean-d'Arves;282;73;0;Zone rurale;14908533;04-Unités urbaines de 100 000 hbts ou plus;1;215;29;381;6191;3028;104.458388375165;De 5 à 10 000 entrées;;NON;NON;;FIXE;NON;R;140;117;29;50.0082304526749;40.5432098765432;6.37037037037037;3.07818930041152;48;13.679012345679;45.214928;6.260483;45.214928, 6.260483
6;406333;ESPACE CULTUREL LE SAVOIE;AUVERGNE-RHONE-ALPES;16 AV DE LA REPUBLIQUE;73261;Saint-Michel-de-Maurienne;2754;73;73104;Saint-Michel-de-Maurienne;3072;06-autres communes et unités urbaines;1;187;52;522;6532;4601;41.9691371440991;De 5 à 10 000 entrées;;OUI;E;JP;FIXE;NON;C;211;179;2;67.7124633683848;19.1173935528357;6.79193242544389;6.37821065333563;112;43.8545078434753;45.21706;6.474053;45.21706, 6.474053
6;439941;LE NAVIRE;AUVERGNE-RHONE-ALPES;9 BD D ALSACE;26362;Valence;65709;26;651;Valence;135081;04-Unités urbaines de 100 000 hbts ou plus;5;739;53;7392;85241;49751;71.3352495427228;De 80 à 100 000 entrées;;OUI;B;RDJPPR;FIXE;NON;C;352;226;201;68.6982823277717;9.1699352030591;10.6626009762575;11.4691814929117;320;90.579237928957;44.93274;4.89523;44.93274, 4.89523
6;441953;CENTRE DE LA CULTURE;AUVERGNE-RHONE-ALPES;ROUSSELET;7334;Les Vans;2710;7;7110;Les Vans;3681;06-autres communes et unités urbaines;1;316;53;434;12050;6883;75.0690106058405;De 10 à 20 000 entrées;;OUI;E;RDJP;FIXE;NON;C;266;214;0;66.6408868265017;15.4764973790496;11.2829767122111;6.59963908223769;182;65.644066340122;44.402406;4.132968;44.402406, 4.132968
6;444143;LES AMPHIS;AUVERGNE-RHONE-ALPES;RUE PIERRE COT;69256;Vaulx-en-Velin;51990;69;758;Lyon;1720030;04-Unités urbaines de 100 000 hbts ou plus;1;177;45;642;11057;5531;99.9096004339179;De 10 à 20 000 entrées;;OUI;C;JP;FIXE;NON;B;159;115;0;75.4302103250478;13.9989074023491;4.02895383774925;6.54192843485387;86;71.5924610762087;45.789822;4.917721;45.789822, 4.917721
6;446804;CINEMA GERARD PHILIPE;AUVERGNE-RHONE-ALPES;12  AVENUE JEAN CAGNE;69259;Vénissieux;67017;69;758;Lyon;1720030;04-Unités urbaines de 100 000 hbts ou plus;3;473;53;4417;51309;30284;69.4260995905429;De 50 à 80 000 entrées;;OUI;C;JPPR;FIXE;NON;B;272;187;85;53.9749050838041;31.8455412538198;10.0888971201037;4.09065654227243;176;43.2192795629225;45.697279;4.8697;45.697279, 4.8697
6;464706;PASS R L;AUVERGNE-RHONE-ALPES;RUE DES FABRIQUES;38563;Voiron;20853;38;38701;Grenoble;523867;04-Unités urbaines de 100 000 hbts ou plus;6;1076;53;8367;187203;117677;59.08206361481;De 150 à 200 000 entrées;;NON;NON;;FIXE;NON;B;195;148;131;33.0192022681874;51.8015550830165;11.8333440728569;3.34589857593917;54;7.90536331808321;45.364057;5.593001;45.364057, 5.593001
7;38931;L UBAYE;PROVENCE-ALPES-COTE D'AZUR;19 RUE HENRI MERCIER;4019;Barcelonnette;2760;4;4106;Barcelonnette;3373;06-autres communes et unités urbaines;2;260;50;1616;22034;11883;85.4245560885298;De 20 à 30 000 entrées;;OUI;E;JPPR;FIXE;NON;C;202;154;31;47.5992438563327;36.2854442344045;9.29584120982987;6.81947069943289;102;23.5964083175803;44.387012;6.653653;44.387012, 6.653653
7;84761;OLYMPIA 5 A 9;PROVENCE-ALPES-COTE D'AZUR;5 RUE D ANTIBES;6029;Cannes;73159;6;6701;Nice;966577;04-Unités urbaines de 100 000 hbts ou plus;5;469;53;8171;64763;50797;27.4937496308837;De 50 à 80 000 entrées;AUBERT;NON;NON;;FIXE;NON;B;177;143;106;43.9812740447754;39.7246728365496;10.1308653801585;6.16318773851645;25;4.8298132039615;43.552366;7.016598;43.552366, 7.016598
7;119812;MAISON POURTOUS;PROVENCE-ALPES-COTE D'AZUR;MAISON POUR TOUS;6048;Contes;7612;6;6701;Nice;966577;04-Unités urbaines de 100 000 hbts ou plus;1;100;53;131;6332;3486;81.6408491107286;De 5 à 10 000 entrées;;NON;NON;;ITINERANT;NON;B;91;80;1;64.3556538218572;28.2375236891977;6.7593177511055;0.647504737839545;29;23.9734680985471;43.803799;7.330148;43.803799, 7.330148
